uf,name,capital,lon,lat,no_accents,alternative_names,microregion,mesoregion,ibge_id
RO,Alta Floresta D'Oeste,,-61.9998239,-11.9355403,Alta Floresta D'Oeste,,Cacoal,Leste Rondoniense,1100015
RO,Ariquemes,,-63.03326928,-9.908462867,Ariquemes,,Ariquemes,Leste Rondoniense,1100023
RO,Cabixi,,-60.54431358,-13.49976346,Cabixi,,Colorado do Oeste,Leste Rondoniense,1100031
RO,Cacoal,,-61.44294421,-11.43386503,Cacoal,,Cacoal,Leste Rondoniense,1100049
RO,Cerejeiras,,-60.81842616,-13.19503303,Cerejeiras,,Colorado do Oeste,Leste Rondoniense,1100056
RO,Colorado do Oeste,,-60.55506746,-13.13056384,Colorado do Oeste,,Colorado do Oeste,Leste Rondoniense,1100064
RO,Corumbiara,,-60.94870117,-12.99752024,Corumbiara,,Colorado do Oeste,Leste Rondoniense,1100072
RO,Costa Marques,,-64.23165394,-12.43601388,Costa Marques,,Guajar-Mirim,Madeira-Guapor,1100080
RO,Espigo D'Oeste,,-61.02017311,-11.52855463,Espigao D'Oeste,,Cacoal,Leste Rondoniense,1100098
RO,Guajar-Mirim,,-65.32395182,-10.77388374,Guajara-Mirim,,Guajar-Mirim,Madeira-Guapor,1100106
RO,Jaru,,-62.47623071,-10.43594877,Jaru,,Ji-Paran,Leste Rondoniense,1100114
RO,Ji-Paran,,-61.94509458,-10.88205132,Ji-Parana,,Ji-Paran,Leste Rondoniense,1100122
RO,Machadinho D'Oeste,,-61.99959257,-9.42556248,Machadinho D'Oeste,,Ariquemes,Leste Rondoniense,1100130
RO,Nova Brasilndia D'Oeste,,-62.30823016,-11.72132541,Nova Brasilandia D'Oeste,,Alvorada D'oeste,Leste Rondoniense,1100148
RO,Ouro Preto do Oeste,,-62.26105519,-10.7235739,Ouro Preto do Oeste,,Ji-Paran,Leste Rondoniense,1100155
RO,Pimenta Bueno,,-61.18366567,-11.67753699,Pimenta Bueno,,Vilhena,Leste Rondoniense,1100189
RO,Porto Velho,TRUE,-63.83144565,-8.76889179,Porto Velho,,Porto Velho,Madeira-Guapor,1100205
RO,Presidente Mdici,,-61.90943868,-11.17320502,Presidente Medici,,Ji-Paran,Leste Rondoniense,1100254
RO,Rio Crespo,,-62.90001037,-9.70553671,Rio Crespo,,Ariquemes,Leste Rondoniense,1100262
RO,Rolim de Moura,,-61.78578094,-11.72225891,Rolim de Moura,,Cacoal,Leste Rondoniense,1100288
RO,Santa Luzia D'Oeste,,-61.77330546,-11.90842333,Santa Luzia D'Oeste,,Cacoal,Leste Rondoniense,1100296
RO,Vilhena,,-60.13858387,-12.74137347,Vilhena,,Vilhena,Leste Rondoniense,1100304
RO,So Miguel do Guapor,,-62.72006348,-11.69948974,Sao Miguel do Guapore,,Alvorada D'oeste,Leste Rondoniense,1100320
RO,Nova Mamor,,-65.32914902,-10.41177129,Nova Mamore,,Porto Velho,Madeira-Guapor,1100338
RO,Alvorada D'Oeste,,-62.27727487,-11.34413002,Alvorada D'Oeste,,Alvorada D'oeste,Leste Rondoniense,1100346
RO,Alto Alegre dos Parecis,,-61.85307717,-12.13177722,Alto Alegre dos Parecis,,Cacoal,Leste Rondoniense,1100379
RO,Alto Paraso,,-63.31762943,-9.716666738,Alto Paraiso,,Ariquemes,Leste Rondoniense,1100403
RO,Buritis,,-63.82967879,-10.20980541,Buritis,,Porto Velho,Madeira-Guapor,1100452
RO,Novo Horizonte do Oeste,,-61.99438766,-11.70974292,Novo Horizonte do Oeste,,Cacoal,Leste Rondoniense,1100502
RO,Cacaulndia,,-62.90318993,-10.33887284,Cacaulandia,,Ariquemes,Leste Rondoniense,1100601
RO,Campo Novo de Rondnia,,-63.62499143,-10.56841647,Campo Novo de Rondonia,,Porto Velho,Madeira-Guapor,1100700
RO,Candeias do Jamari,,-63.70002007,-8.785020704,Candeias do Jamari,,Porto Velho,Madeira-Guapor,1100809
RO,Castanheiras,,-61.9491612,-11.42684223,Castanheiras,,Cacoal,Leste Rondoniense,1100908
RO,Chupinguaia,,-60.90184775,-12.55684076,Chupinguaia,,Vilhena,Leste Rondoniense,1100924
RO,Cujubim,,-62.58717453,-9.378193399,Cujubim,,Porto Velho,Madeira-Guapor,1100940
RO,Governador Jorge Teixeira,,-62.74045764,-10.61207177,Governador Jorge Teixeira,,Ji-Paran,Leste Rondoniense,1101005
RO,Itapu do Oeste,,-63.18233702,-9.191871675,Itapua do Oeste,,Porto Velho,Madeira-Guapor,1101104
RO,Ministro Andreazza,,-61.51892193,-11.19623798,Ministro Andreazza,,Cacoal,Leste Rondoniense,1101203
RO,Mirante da Serra,,-62.6694271,-11.04560929,Mirante da Serra,,Ji-Paran,Leste Rondoniense,1101302
RO,Monte Negro,,-63.29555917,-10.26309776,Monte Negro,,Ariquemes,Leste Rondoniense,1101401
RO,Nova Unio,,-62.5550894,-10.91553204,Nova Uniao,,Ji-Paran,Leste Rondoniense,1101435
RO,Parecis,,-61.59799797,-12.17982705,Parecis,,Vilhena,Leste Rondoniense,1101450
RO,Pimenteiras do Oeste,,-61.044379,-13.476562,Pimenteiras do Oeste,,Colorado do Oeste,Leste Rondoniense,1101468
RO,Primavera de Rondnia,,-61.31654624,-11.82570695,Primavera de Rondonia,,Vilhena,Leste Rondoniense,1101476
RO,So Felipe D'Oeste,,-61.51250811,-11.91438935,Sao Felipe D'Oeste,,Vilhena,Leste Rondoniense,1101484
RO,So Francisco do Guapor,,-63.57086471,-12.06379841,Sao Francisco do Guapore,,Guajar-Mirim,Madeira-Guapor,1101492
RO,Seringueiras,,-63.038761,-11.76711664,Seringueiras,,Alvorada D'oeste,Leste Rondoniense,1101500
RO,Teixeirpolis,,-62.25592225,-10.93216929,Teixeiropolis,,Ji-Paran,Leste Rondoniense,1101559
RO,Theobroma,,-62.34514553,-10.24873055,Theobroma,,Ji-Paran,Leste Rondoniense,1101609
RO,Urup,,-62.37063245,-11.12854528,Urupa,,Ji-Paran,Leste Rondoniense,1101708
RO,Vale do Anari,,-62.17682344,-9.851392708,Vale do Anari,,Ariquemes,Leste Rondoniense,1101757
RO,Vale do Paraso,,-62.13439036,-10.43105268,Vale do Paraiso,,Ji-Paran,Leste Rondoniense,1101807
AC,Acrelndia,,-67.05231658,-10.07379389,Acrelandia,,Rio Branco,Vale do Acre,1200013
AC,Assis Brasil,,-69.56345917,-10.94286568,Assis Brasil,,Brasilia,Vale do Acre,1200054
AC,Brasilia,,-68.74794343,-11.01641102,Brasileia,,Brasilia,Vale do Acre,1200104
AC,Bujari,,-67.95185928,-9.820019627,Bujari,,Rio Branco,Vale do Acre,1200138
AC,Capixaba,,-67.67350797,-10.56976771,Capixaba,,Rio Branco,Vale do Acre,1200179
AC,Cruzeiro do Sul,,-72.67253132,-7.630690005,Cruzeiro do Sul,,Cruzeiro do Sul,Vale do Juru,1200203
AC,Epitaciolndia,,-68.74486807,-11.02823983,Epitaciolandia,,Brasilia,Vale do Acre,1200252
AC,Feij,,-70.35398361,-8.16024753,Feijo,,Tarauac,Vale do Juru,1200302
AC,Jordo,,-71.95087512,-9.19335786,Jordao,,Tarauac,Vale do Juru,1200328
AC,Mncio Lima,,-72.91650103,-7.593222594,Mancio Lima,,Cruzeiro do Sul,Vale do Juru,1200336
AC,Manoel Urbano,,-69.25994458,-8.836317737,Manoel Urbano,,Sena Madureira,Vale do Acre,1200344
AC,Marechal Thaumaturgo,,-72.79026591,-8.953591123,Marechal Thaumaturgo,,Cruzeiro do Sul,Vale do Juru,1200351
AC,Plcido de Castro,,-67.18826009,-10.33513328,Placido de Castro,,Rio Branco,Vale do Acre,1200385
AC,Porto Walter,,-72.74233396,-8.266666363,Porto Walter,,Cruzeiro do Sul,Vale do Juru,1200393
AC,Rio Branco,TRUE,-67.8105287,-9.978298753,Rio Branco,,Rio Branco,Vale do Acre,1200401
AC,Rodrigues Alves,,-72.64785491,-7.733602034,Rodrigues Alves,,Cruzeiro do Sul,Vale do Juru,1200427
AC,Santa Rosa do Purus,,-70.48649689,-9.443406537,Santa Rosa do Purus,,Sena Madureira,Vale do Acre,1200435
AC,Senador Guiomard,,-67.74317236,-10.14817359,Senador Guiomard,,Rio Branco,Vale do Acre,1200450
AC,Sena Madureira,,-68.65568406,-9.065339505,Sena Madureira,,Sena Madureira,Vale do Acre,1200500
AC,Tarauac,,-70.75550106,-8.155668592,Tarauaca,,Tarauac,Vale do Juru,1200609
AC,Xapuri,,-68.50629481,-10.65207194,Xapuri,,Brasilia,Vale do Acre,1200708
AC,Porto Acre,,-67.54059008,-9.600858231,Porto Acre,,Rio Branco,Vale do Acre,1200807
AM,Alvares,,-64.81353468,-3.216583769,Alvaraes,,Tef,Centro Amazonense,1300029
AM,Amatur,,-68.20961464,-3.366805188,Amatura,,Alto Solimes,Sudoeste Amazonense,1300060
AM,Anam,,-61.40590348,-3.576370427,Anama,,Coari,Centro Amazonense,1300086
AM,Anori,,-61.65895538,-3.745385586,Anori,,Coari,Centro Amazonense,1300102
AM,Apu,,-59.8856661,-7.197870152,Apui,,Madeira,Sul Amazonense,1300144
AM,Atalaia do Norte,,-70.18798928,-4.36615749,Atalaia do Norte,,Alto Solimes,Sudoeste Amazonense,1300201
AM,Autazes,,-59.13356709,-3.578663642,Autazes,,Manaus,Centro Amazonense,1300300
AM,Barcelos,,-62.92566966,-0.972801053,Barcelos,,Rio Negro,Norte Amazonense,1300409
AM,Barreirinha,,-57.06775049,-2.798149837,Barreirinha,,Parintins,Centro Amazonense,1300508
AM,Benjamin Constant,,-70.02734843,-4.374989019,Benjamin Constant,,Alto Solimes,Sudoeste Amazonense,1300607
AM,Beruri,,-61.37157089,-3.89451341,Beruri,,Coari,Centro Amazonense,1300631
AM,Boa Vista do Ramos,,-57.58770735,-2.971726532,Boa Vista do Ramos,,Parintins,Centro Amazonense,1300680
AM,Boca do Acre,,-67.39957776,-8.751243196,Boca do Acre,,Boca do Acre,Sul Amazonense,1300706
AM,Borba,,-59.59455902,-4.390619892,Borba,,Madeira,Sul Amazonense,1300805
AM,Caapiranga,,-61.21133413,-3.330093392,Caapiranga,,Coari,Centro Amazonense,1300839
AM,Canutama,,-64.39423082,-6.529106076,Canutama,,Purus,Sul Amazonense,1300904
AM,Carauari,,-66.89663528,-4.881665904,Carauari,,Juru,Sudoeste Amazonense,1301001
AM,Careiro,,-60.36380984,-3.82244727,Careiro,,Manaus,Centro Amazonense,1301100
AM,Careiro da Vrzea,,-59.82631406,-3.197396595,Careiro da Varzea,,Manaus,Centro Amazonense,1301159
AM,Coari,,-63.14218398,-4.084219159,Coari,,Coari,Centro Amazonense,1301209
AM,Codajs,,-62.06342966,-3.843045933,Codajas,,Coari,Centro Amazonense,1301308
AM,Eirunep,,-69.86629026,-6.667352567,Eirunepe,,Juru,Sudoeste Amazonense,1301407
AM,Envira,,-70.03041254,-7.439817544,Envira,,Juru,Sudoeste Amazonense,1301506
AM,Fonte Boa,,-66.09650299,-2.512270685,Fonte Boa,,Alto Solimes,Sudoeste Amazonense,1301605
AM,Guajar,,-72.58243054,-7.547774415,Guajara,,Juru,Sudoeste Amazonense,1301654
AM,Humait,,-63.02669802,-7.512224951,Humaita,,Madeira,Sul Amazonense,1301704
AM,Ipixuna,,-71.69441806,-7.050980114,Ipixuna,,Juru,Sudoeste Amazonense,1301803
AM,Iranduba,,-60.19338817,-3.281053878,Iranduba,,Manaus,Centro Amazonense,1301852
AM,Itacoatiara,,-58.44017544,-3.140378804,Itacoatiara,,Itacoatiara,Centro Amazonense,1301902
AM,Itamarati,,-68.24791744,-6.437799349,Itamarati,,Juru,Sudoeste Amazonense,1301951
AM,Itapiranga,,-58.03454588,-2.741842752,Itapiranga,,Itacoatiara,Centro Amazonense,1302009
AM,Japur,,-66.99690349,-1.880844859,Japura,,Japur,Norte Amazonense,1302108
AM,Juru,,-66.06304193,-3.474889599,Jurua,,Juru,Sudoeste Amazonense,1302207
AM,Juta,,-66.77132755,-2.744646447,Jutai,,Alto Solimes,Sudoeste Amazonense,1302306
AM,Lbrea,,-64.79477303,-7.261946553,Labrea,,Purus,Sul Amazonense,1302405
AM,Manacapuru,,-60.62058945,-3.298278036,Manacapuru,,Manaus,Centro Amazonense,1302504
AM,Manaquiri,,-60.45888131,-3.429079669,Manaquiri,,Manaus,Centro Amazonense,1302553
AM,Manaus,TRUE,-60.02333518,-3.134691491,Manaus,,Manaus,Centro Amazonense,1302603
AM,Manicor,,-61.29924841,-5.813205261,Manicore,,Madeira,Sul Amazonense,1302702
AM,Mara,,-65.5742837,-1.866436877,Maraa,,Japur,Norte Amazonense,1302801
AM,Maus,,-57.71503439,-3.386427926,Maues,,Parintins,Centro Amazonense,1302900
AM,Nhamund,,-56.71676991,-2.188983767,Nhamunda,,Parintins,Centro Amazonense,1303007
AM,Nova Olinda do Norte,,-59.09307403,-3.887592832,Nova Olinda do Norte,,Itacoatiara,Centro Amazonense,1303106
AM,Novo Airo,,-60.94881071,-2.623432459,Novo Airao,,Rio Negro,Norte Amazonense,1303205
AM,Novo Aripuan,,-60.37704567,-5.122669314,Novo Aripuana,,Madeira,Sul Amazonense,1303304
AM,Parintins,,-56.73629215,-2.627052586,Parintins,,Parintins,Centro Amazonense,1303403
AM,Pauini,,-67.00209749,-7.714043644,Pauini,,Boca do Acre,Sul Amazonense,1303502
AM,Presidente Figueiredo,,-60.02564683,-2.058429085,Presidente Figueiredo,,Rio Preto da Eva,Centro Amazonense,1303536
AM,Rio Preto da Eva,,-59.70473809,-2.693301542,Rio Preto da Eva,,Rio Preto da Eva,Centro Amazonense,1303569
AM,Santa Isabel do Rio Negro,,-65.02002264,-0.416694832,Santa Isabel do Rio Negro,,Rio Negro,Norte Amazonense,1303601
AM,Santo Antnio do I,,-67.94648514,-3.107486309,Santo Antonio do Ica,,Alto Solimes,Sudoeste Amazonense,1303700
AM,So Gabriel da Cachoeira,,-67.0836429,-0.136462788,Sao Gabriel da Cachoeira,,Rio Negro,Norte Amazonense,1303809
AM,So Paulo de Olivena,,-68.94485349,-3.466509624,Sao Paulo de Olivenca,,Alto Solimes,Sudoeste Amazonense,1303908
AM,So Sebastio do Uatum,,-57.87034636,-2.57015258,Sao Sebastiao do Uatuma,,Parintins,Centro Amazonense,1303957
AM,Silves,,-58.21480086,-2.83642743,Silves,,Itacoatiara,Centro Amazonense,1304005
AM,Tabatinga,,-69.94624438,-4.231883676,Tabatinga,,Alto Solimes,Sudoeste Amazonense,1304062
AM,Tapau,,-63.18709487,-5.624223518,Tapaua,,Purus,Sul Amazonense,1304104
AM,Tef,,-64.70841966,-3.348372494,Tefe,,Tef,Centro Amazonense,1304203
AM,Tonantins,,-67.77648228,-2.86109125,Tonantins,,Alto Solimes,Sudoeste Amazonense,1304237
AM,Uarini,,-65.15534564,-2.983609243,Uarini,,Tef,Centro Amazonense,1304260
AM,Urucar,,-57.75982817,-2.536611672,Urucara,,Parintins,Centro Amazonense,1304302
AM,Urucurituba,,-58.15964104,-3.134633116,Urucurituba,,Itacoatiara,Centro Amazonense,1304401
RR,Amajari,,-61.42059017,3.652118445,Amajari,,Boa Vista,Norte de Roraima,1400027
RR,Alto Alegre,,-61.31402239,2.993822948,Alto Alegre,,Boa Vista,Norte de Roraima,1400050
RR,Boa Vista,TRUE,-60.67053267,2.816681919,Boa Vista,,Boa Vista,Norte de Roraima,1400100
RR,Bonfim,,-59.87800663,3.350288619,Bonfim,,Nordeste de Roraima,Norte de Roraima,1400159
RR,Cant,,-60.60206285,2.607666398,Canta,,Nordeste de Roraima,Norte de Roraima,1400175
RR,Caracara,,-61.14917687,1.803871247,Caracarai,,Caracara,Sul de Roraima,1400209
RR,Caroebe,,-59.69481007,0.872674507,Caroebe,,Sudeste de Roraima,Sul de Roraima,1400233
RR,Iracema,,-61.05225859,2.168214765,Iracema,,Caracara,Sul de Roraima,1400282
RR,Mucaja,,-60.91151853,2.479772235,Mucajai,,Caracara,Sul de Roraima,1400308
RR,Normandia,,-59.63520628,3.882978285,Normandia,,Nordeste de Roraima,Norte de Roraima,1400407
RR,Pacaraima,,-61.14730635,4.47525934,Pacaraima,,Boa Vista,Norte de Roraima,1400456
RR,Rorainpolis,,-60.42506049,0.937195394,Rorainopolis,,Sudeste de Roraima,Sul de Roraima,1400472
RR,So Joo da Baliza,,-59.90604435,0.947157428,Sao Joao da Baliza,,Sudeste de Roraima,Sul de Roraima,1400506
RR,So Luiz,,-60.02826677,1.018111627,Sao Luiz,,Sudeste de Roraima,Sul de Roraima,1400605
RR,Uiramut,,-60.19571615,4.585440388,Uiramuta,,Nordeste de Roraima,Norte de Roraima,1400704
PA,Abaetetuba,,-48.88440382,-1.723469863,Abaetetuba,,Camet,Nordeste Paraense,1500107
PA,Abel Figueiredo,,-48.39676213,-4.951390896,Abel Figueiredo,,Paragominas,Sudeste Paraense,1500131
PA,Acar,,-48.20045643,-1.9634365,Acara,,Tom-Au,Nordeste Paraense,1500206
PA,Afu,,-50.39142759,-0.159171694,Afua,,Furos de Breves,Maraj,1500305
PA,gua Azul do Norte,,-50.48527451,-6.804948867,Agua Azul do Norte,,Parauapebas,Sudeste Paraense,1500347
PA,Alenquer,,-54.74086235,-1.951397505,Alenquer,,Santarm,Baixo Amazonas,1500404
PA,Almeirim,,-52.57683509,-1.527338803,Almeirim,,Almeirim,Baixo Amazonas,1500503
PA,Altamira,,-52.21437631,-3.20565951,Altamira,,Altamira,Sudoeste Paraense,1500602
PA,Anajs,,-49.94500104,-0.984451394,Anajas,,Furos de Breves,Maraj,1500701
PA,Ananindeua,,-48.37206665,-1.368713568,Ananindeua,,Belm,Metropolitana de Belm,1500800
PA,Anapu,,-51.2016218,-3.476104635,Anapu,,Altamira,Sudoeste Paraense,1500859
PA,Augusto Corra,,-46.64164579,-1.02292101,Augusto Correa,,Bragantina,Nordeste Paraense,1500909
PA,Aurora do Par,,-47.5561746,-2.129376013,Aurora do Para,,Guam,Nordeste Paraense,1500958
PA,Aveiro,,-55.33073439,-3.605595259,Aveiro,,Itaituba,Sudoeste Paraense,1501006
PA,Bagre,,-50.22198692,-1.88980806,Bagre,,Portel,Maraj,1501105
PA,Baio,,-49.67275337,-2.791961861,Baiao,,Camet,Nordeste Paraense,1501204
PA,Bannach,,-50.40604712,-7.351072192,Bannach,,So Flix do Xingu,Sudeste Paraense,1501253
PA,Barcarena,,-48.62707289,-1.505767005,Barcarena,,Belm,Metropolitana de Belm,1501303
PA,Belm,TRUE,-48.48782569,-1.459845,Belem,,Belm,Metropolitana de Belm,1501402
PA,Belterra,,-54.94267474,-2.64902017,Belterra,,Santarm,Baixo Amazonas,1501451
PA,Benevides,,-48.24183645,-1.361437515,Benevides,,Belm,Metropolitana de Belm,1501501
PA,Bom Jesus do Tocantins,,-48.59903996,-5.047362704,Bom Jesus do Tocantins,,Paragominas,Sudeste Paraense,1501576
PA,Bonito,,-47.30589182,-1.367474357,Bonito,,Bragantina,Nordeste Paraense,1501600
PA,Bragana,,-46.76575421,-1.053523956,Braganca,,Bragantina,Nordeste Paraense,1501709
PA,Brasil Novo,,-52.54344119,-3.297803704,Brasil Novo,,Altamira,Sudoeste Paraense,1501725
PA,Brejo Grande do Araguaia,,-48.40576042,-5.707296154,Brejo Grande do Araguaia,,Marab,Sudeste Paraense,1501758
PA,Breu Branco,,-49.56987968,-3.778135413,Breu Branco,,Tucuru,Sudeste Paraense,1501782
PA,Breves,,-50.4808948,-1.6907365,Breves,,Furos de Breves,Maraj,1501808
PA,Bujaru,,-48.03587501,-1.513991462,Bujaru,,Castanhal,Metropolitana de Belm,1501907
PA,Cachoeira do Piri,,-46.54739142,-1.752897005,Cachoeira do Piria,,Guam,Nordeste Paraense,1501956
PA,Cachoeira do Arari,,-48.96066758,-1.008786266,Cachoeira do Arari,,Arari,Maraj,1502004
PA,Camet,,-49.49783017,-2.24683848,Cameta,,Camet,Nordeste Paraense,1502103
PA,Cana dos Carajs,,-49.84895843,-6.532196616,Canaa dos Carajas,,Parauapebas,Sudeste Paraense,1502152
PA,Capanema,,-47.17512612,-1.192441995,Capanema,,Bragantina,Nordeste Paraense,1502202
PA,Capito Poo,,-47.06282538,-1.746187293,Capitao Poco,,Guam,Nordeste Paraense,1502301
PA,Castanhal,,-47.92664314,-1.295756805,Castanhal,,Castanhal,Metropolitana de Belm,1502400
PA,Chaves,,-49.98931861,-0.16243729,Chaves,,Arari,Maraj,1502509
PA,Colares,,-48.28872843,-0.932091244,Colares,,Salgado,Nordeste Paraense,1502608
PA,Conceio do Araguaia,,-49.26450081,-8.26486353,Conceicao do Araguaia,,Conceio do Araguaia,Sudeste Paraense,1502707
PA,Concrdia do Par,,-47.94988694,-1.984521463,Concordia do Para,,Tom-Au,Nordeste Paraense,1502756
PA,Cumaru do Norte,,-50.77157838,-7.811106537,Cumaru do Norte,,So Flix do Xingu,Sudeste Paraense,1502764
PA,Curionpolis,,-49.60221423,-6.096819952,Curionopolis,,Parauapebas,Sudeste Paraense,1502772
PA,Curralinho,,-49.79152285,-1.80942342,Curralinho,,Furos de Breves,Maraj,1502806
PA,Curu,,-55.11967861,-1.889928704,Curua,,Santarm,Baixo Amazonas,1502855
PA,Curu,,-47.85126509,-0.73249551,Curuca,,Salgado,Nordeste Paraense,1502905
PA,Dom Eliseu,,-47.55591489,-4.29077772,Dom Eliseu,,Paragominas,Sudeste Paraense,1502939
PA,Eldorado dos Carajs,,-49.37395194,-6.103525161,Eldorado dos Carajas,,Parauapebas,Sudeste Paraense,1502954
PA,Faro,,-56.74575302,-2.172975242,Faro,,bidos,Baixo Amazonas,1503002
PA,Floresta do Araguaia,,-49.69757841,-7.558700872,Floresta do Araguaia,,Conceio do Araguaia,Sudeste Paraense,1503044
PA,Garrafo do Norte,,-47.04504602,-1.931697043,Garrafao do Norte,,Guam,Nordeste Paraense,1503077
PA,Goiansia do Par,,-49.10104492,-3.842468,Goianesia do Para,,Paragominas,Sudeste Paraense,1503093
PA,Gurup,,-51.64369572,-1.404918,Gurupa,,Portel,Maraj,1503101
PA,Igarap-Au,,-47.62237549,-1.124322,Igarape-Acu,,Bragantina,Nordeste Paraense,1503200
PA,Igarap-Miri,,-48.96229947,-1.983116,Igarape-Miri,,Camet,Nordeste Paraense,1503309
PA,Inhangapi,,-47.91339275,-1.426581981,Inhangapi,,Castanhal,Metropolitana de Belm,1503408
PA,Ipixuna do Par,,-47.49971759,-2.5575285,Ipixuna do Para,,Guam,Nordeste Paraense,1503457
PA,Irituia,,-47.44075561,-1.771474995,Irituia,,Guam,Nordeste Paraense,1503507
PA,Itaituba,,-55.99004886,-4.26372948,Itaituba,,Itaituba,Sudoeste Paraense,1503606
PA,Itupiranga,,-49.32442586,-5.128837026,Itupiranga,,Tucuru,Sudeste Paraense,1503705
PA,Jacareacanga,,-57.76633986,-6.223551731,Jacareacanga,,Itaituba,Sudoeste Paraense,1503754
PA,Jacund,,-49.11278156,-4.448405475,Jacunda,,Tucuru,Sudeste Paraense,1503804
PA,Juruti,,-56.09499769,-2.155252995,Juruti,,bidos,Baixo Amazonas,1503903
PA,Limoeiro do Ajuru,,-49.3815339,-1.8919485,Limoeiro do Ajuru,,Camet,Nordeste Paraense,1504000
PA,Me do Rio,,-47.55229018,-2.047707441,Mae do Rio,,Guam,Nordeste Paraense,1504059
PA,Magalhes Barata,,-47.5991819,-0.795850156,Magalhaes Barata,,Salgado,Nordeste Paraense,1504109
PA,Marab,,-49.14202533,-5.352605763,Maraba,,Marab,Sudeste Paraense,1504208
PA,Maracan,,-47.45526796,-0.76241946,Maracana,,Salgado,Nordeste Paraense,1504307
PA,Marapanim,,-47.70254875,-0.712150996,Marapanim,,Salgado,Nordeste Paraense,1504406
PA,Marituba,,-48.34053588,-1.346417266,Marituba,,Belm,Metropolitana de Belm,1504422
PA,Medicilndia,,-52.88834535,-3.445417412,Medicilandia,,Altamira,Sudoeste Paraense,1504455
PA,Melgao,,-50.7174647,-1.803446699,Melgaco,,Portel,Maraj,1504505
PA,Mocajuba,,-49.50902346,-2.582872973,Mocajuba,,Camet,Nordeste Paraense,1504604
PA,Moju,,-48.76719913,-1.885889,Moju,,Tom-Au,Nordeste Paraense,1504703
PA,Monte Alegre,,-54.07337473,-2.003328,Monte Alegre,,Santarm,Baixo Amazonas,1504802
PA,Muan,,-49.21683244,-1.530026208,Muana,,Arari,Maraj,1504901
PA,Nova Esperana do Piri,,-46.96209288,-2.267625989,Nova Esperanca do Piria,,Guam,Nordeste Paraense,1504950
PA,Nova Ipixuna,,-49.07988694,-4.923086307,Nova Ipixuna,,Tucuru,Sudeste Paraense,1504976
PA,Nova Timboteua,,-47.39320228,-1.204143648,Nova Timboteua,,Bragantina,Nordeste Paraense,1505007
PA,Novo Progresso,,-55.41987012,-7.034835913,Novo Progresso,,Itaituba,Sudoeste Paraense,1505031
PA,Novo Repartimento,,-49.94863824,-4.2481485,Novo Repartimento,,Tucuru,Sudeste Paraense,1505064
PA,bidos,,-55.51632351,-1.909235496,Obidos,,bidos,Baixo Amazonas,1505106
PA,Oeiras do Par,,-49.85510611,-2.004734,Oeiras do Para,,Camet,Nordeste Paraense,1505205
PA,Oriximin,,-55.86279952,-1.7637535,Oriximina,,bidos,Baixo Amazonas,1505304
PA,Ourm,,-47.11761936,-1.548947142,Ourem,,Guam,Nordeste Paraense,1505403
PA,Ourilndia do Norte,,-51.09083277,-6.740617086,Ourilandia do Norte,,So Flix do Xingu,Sudeste Paraense,1505437
PA,Pacaj,,-50.63484083,-3.830305704,Pacaja,,Altamira,Sudoeste Paraense,1505486
PA,Palestina do Par,,-48.32179373,-5.749934106,Palestina do Para,,Marab,Sudeste Paraense,1505494
PA,Paragominas,,-47.35696156,-2.9941905,Paragominas,,Paragominas,Sudeste Paraense,1505502
PA,Parauapebas,,-49.90078063,-6.072729888,Parauapebas,,Parauapebas,Sudeste Paraense,1505536
PA,Pau D'Arco,,-50.04827553,-7.836794404,Pau D'Arco,,Redeno,Sudeste Paraense,1505551
PA,Peixe-Boi,,-47.31792702,-1.189569241,Peixe-Boi,,Bragantina,Nordeste Paraense,1505601
PA,Piarra,,-48.86840067,-6.453676235,Picarra,,Redeno,Sudeste Paraense,1505635
PA,Placas,,-54.21696813,-3.867315562,Placas,,Santarm,Baixo Amazonas,1505650
PA,Ponta de Pedras,,-48.87178556,-1.396599998,Ponta de Pedras,,Arari,Maraj,1505700
PA,Portel,,-50.82249044,-1.936451,Portel,,Portel,Maraj,1505809
PA,Porto de Moz,,-52.24247692,-1.746090089,Porto de Moz,,Almeirim,Baixo Amazonas,1505908
PA,Prainha,,-53.48181394,-1.8056945,Prainha,,Santarm,Baixo Amazonas,1506005
PA,Primavera,,-47.11725126,-0.940111516,Primavera,,Bragantina,Nordeste Paraense,1506104
PA,Quatipuru,,-47.00678699,-0.900115854,Quatipuru,,Bragantina,Nordeste Paraense,1506112
PA,Redeno,,-50.02964183,-8.0276045,Redencao,,Redeno,Sudeste Paraense,1506138
PA,Rio Maria,,-50.04641088,-7.311115245,Rio Maria,,Redeno,Sudeste Paraense,1506161
PA,Rondon do Par,,-48.06997375,-4.777821727,Rondon do Para,,Paragominas,Sudeste Paraense,1506187
PA,Rurpolis,,-54.90586226,-4.09906539,Ruropolis,,Itaituba,Sudoeste Paraense,1506195
PA,Salinpolis,,-47.35312026,-0.623638,Salinopolis,,Salgado,Nordeste Paraense,1506203
PA,Salvaterra,,-48.5131866,-0.754525974,Salvaterra,,Arari,Maraj,1506302
PA,Santa Brbara do Par,,-48.29774065,-1.229439467,Santa Barbara do Para,,Belm,Metropolitana de Belm,1506351
PA,Santa Cruz do Arari,,-49.17161557,-0.659974126,Santa Cruz do Arari,,Arari,Maraj,1506401
PA,Santa Isabel do Par,,-48.16305994,-1.297395901,Santa Isabel do Para,,Castanhal,Metropolitana de Belm,1506500
PA,Santa Luzia do Par,,-46.9061692,-1.518827891,Santa Luzia do Para,,Guam,Nordeste Paraense,1506559
PA,Santa Maria das Barreiras,,-49.71935186,-8.87055054,Santa Maria das Barreiras,,Conceio do Araguaia,Sudeste Paraense,1506583
PA,Santa Maria do Par,,-47.57469541,-1.347866459,Santa Maria do Para,,Bragantina,Nordeste Paraense,1506609
PA,Santana do Araguaia,,-50.34480432,-9.329424525,Santana do Araguaia,,Conceio do Araguaia,Sudeste Paraense,1506708
PA,Santarm,,-54.71857017,-2.43621333,Santarem,,Santarm,Baixo Amazonas,1506807
PA,Santarm Novo,,-47.40092474,-0.928719536,Santarem Novo,,Bragantina,Nordeste Paraense,1506906
PA,Santo Antnio do Tau,,-48.13243307,-1.1516925,Santo Antonio do Taua,,Castanhal,Metropolitana de Belm,1507003
PA,So Caetano de Odivelas,,-48.0258055,-0.74661776,Sao Caetano de Odivelas,,Salgado,Nordeste Paraense,1507102
PA,So Domingos do Araguaia,,-48.72037341,-5.549841,Sao Domingos do Araguaia,,Marab,Sudeste Paraense,1507151
PA,So Domingos do Capim,,-47.77478457,-1.6758145,Sao Domingos do Capim,,Guam,Nordeste Paraense,1507201
PA,So Flix do Xingu,,-51.99378252,-6.642483278,Sao Felix do Xingu,,So Flix do Xingu,Sudeste Paraense,1507300
PA,So Francisco do Par,,-47.79051461,-1.170188785,Sao Francisco do Para,,Bragantina,Nordeste Paraense,1507409
PA,So Geraldo do Araguaia,,-48.55571249,-6.39895797,Sao Geraldo do Araguaia,,Redeno,Sudeste Paraense,1507458
PA,So Joo da Ponta,,-47.92072417,-0.851002145,Sao Joao da Ponta,,Salgado,Nordeste Paraense,1507466
PA,So Joo de Pirabas,,-47.1726743,-0.766442532,Sao Joao de Pirabas,,Salgado,Nordeste Paraense,1507474
PA,So Joo do Araguaia,,-48.7886334,-5.359002724,Sao Joao do Araguaia,,Marab,Sudeste Paraense,1507508
PA,So Miguel do Guam,,-47.48240894,-1.617135915,Sao Miguel do Guama,,Guam,Nordeste Paraense,1507607
PA,So Sebastio da Boa Vista,,-49.53231217,-1.7188505,Sao Sebastiao da Boa Vista,,Furos de Breves,Maraj,1507706
PA,Sapucaia,,-49.70358071,-6.942857113,Sapucaia,,Redeno,Sudeste Paraense,1507755
PA,Senador Jos Porfrio,,-51.95305642,-2.594850418,Senador Jose Porfirio,,Altamira,Sudoeste Paraense,1507805
PA,Soure,,-48.51601266,-0.7259255,Soure,,Arari,Maraj,1507904
PA,Tailndia,,-48.95128163,-2.9370795,Tailandia,,Tom-Au,Nordeste Paraense,1507953
PA,Terra Alta,,-47.90780835,-1.034826664,Terra Alta,,Salgado,Nordeste Paraense,1507961
PA,Terra Santa,,-56.49090477,-2.108114474,Terra Santa,,bidos,Baixo Amazonas,1507979
PA,Tom-Au,,-48.14689659,-2.419366855,Tome-Acu,,Tom-Au,Nordeste Paraense,1508001
PA,Tracuateua,,-46.89947834,-1.068784059,Tracuateua,,Bragantina,Nordeste Paraense,1508035
PA,Trairo,,-55.99617003,-4.69981915,Trairao,,Itaituba,Sudoeste Paraense,1508050
PA,Tucum,,-51.13953925,-6.749972007,Tucuma,,So Flix do Xingu,Sudeste Paraense,1508084
PA,Tucuru,,-49.66718437,-3.766889084,Tucurui,,Tucuru,Sudeste Paraense,1508100
PA,Ulianpolis,,-47.50314476,-3.75719301,Ulianopolis,,Paragominas,Sudeste Paraense,1508126
PA,Uruar,,-53.73703105,-3.7065285,Uruara,,Altamira,Sudoeste Paraense,1508159
PA,Vigia,,-48.14149859,-0.855532574,Vigia,,Salgado,Nordeste Paraense,1508209
PA,Viseu,,-46.13876522,-1.203278527,Viseu,,Guam,Nordeste Paraense,1508308
PA,Vitria do Xingu,,-52.01126035,-2.88376571,Vitoria do Xingu,,Altamira,Sudoeste Paraense,1508357
PA,Xinguara,,-49.94270058,-7.101512827,Xinguara,,Redeno,Sudeste Paraense,1508407
AP,Serra do Navio,,-52.00353844,0.897841041,Serra do Navio,,Macap,Sul do Amap,1600055
AP,Amap,,-50.79321447,2.053921245,Amapa,,Amap,Norte do Amap,1600105
AP,Pedra Branca do Amapari,,-51.94659427,0.776882861,Pedra Branca do Amapari,,Macap,Sul do Amap,1600154
AP,Caloene,,-50.94477273,2.496559045,Calcoene,,Oiapoque,Norte do Amap,1600204
AP,Cutias,,-50.80162603,0.971078055,Cutias,,Macap,Sul do Amap,1600212
AP,Ferreira Gomes,,-51.18742905,0.853977393,Ferreira Gomes,,Macap,Sul do Amap,1600238
AP,Itaubal,,-50.70017944,0.600653288,Itaubal,,Macap,Sul do Amap,1600253
AP,Laranjal do Jari,,-52.53902074,-0.8556645,Laranjal do Jari,,Mazago,Sul do Amap,1600279
AP,Macap,TRUE,-51.05740546,0.03895101,Macapa,,Macap,Sul do Amap,1600303
AP,Mazago,,-51.28607686,-0.124396329,Mazagao,,Mazago,Sul do Amap,1600402
AP,Oiapoque,,-51.83055256,3.851130733,Oiapoque,,Oiapoque,Norte do Amap,1600501
AP,Porto Grande,,-51.41444882,0.712554702,Porto Grande,,Macap,Sul do Amap,1600535
AP,Pracuba,,-50.78425372,1.742508487,Pracuuba,,Amap,Norte do Amap,1600550
AP,Santana,,-51.17284647,-0.038373479,Santana,,Macap,Sul do Amap,1600600
AP,Tartarugalzinho,,-50.91278615,1.50984824,Tartarugalzinho,,Amap,Norte do Amap,1600709
AP,Vitria do Jari,,-52.41961478,-0.918977089,Vitoria do Jari,,Mazago,Sul do Amap,1600808
TO,Abreulndia,,-49.16243756,-9.621790712,Abreulandia,,Miracema do Tocantins,Ocidental do Tocantins,1700251
TO,Aguiarnpolis,,-47.47045659,-6.547170821,Aguiarnopolis,,Bico do Papagaio,Ocidental do Tocantins,1700301
TO,Aliana do Tocantins,,-48.94124002,-11.30374305,Alianca do Tocantins,,Gurupi,Ocidental do Tocantins,1700350
TO,Almas,,-47.17417168,-11.57452347,Almas,,Dianpolis,Oriental do Tocantins,1700400
TO,Alvorada,,-49.12681141,-12.47881532,Alvorada,,Gurupi,Ocidental do Tocantins,1700707
TO,Anans,,-48.07976461,-6.362818154,Ananas,,Bico do Papagaio,Ocidental do Tocantins,1701002
TO,Angico,,-47.86207784,-6.38775275,Angico,,Bico do Papagaio,Ocidental do Tocantins,1701051
TO,Aparecida do Rio Negro,,-47.97667001,-9.955877715,Aparecida do Rio Negro,,Porto Nacional,Oriental do Tocantins,1701101
TO,Aragominas,,-48.52343019,-7.164349271,Aragominas,,Araguana,Ocidental do Tocantins,1701309
TO,Araguacema,,-49.56181264,-8.801802544,Araguacema,,Miracema do Tocantins,Ocidental do Tocantins,1701903
TO,Araguau,,-49.82861244,-12.92558371,Araguacu,,Rio Formoso,Ocidental do Tocantins,1702000
TO,Araguana,,-48.20870525,-7.19132894,Araguaina,,Araguana,Ocidental do Tocantins,1702109
TO,Araguan,,-48.64374955,-6.58224942,Araguana,,Araguana,Ocidental do Tocantins,1702158
TO,Araguatins,,-48.12350734,-5.650586473,Araguatins,,Bico do Papagaio,Ocidental do Tocantins,1702208
TO,Arapoema,,-49.07563739,-7.652569735,Arapoema,,Araguana,Ocidental do Tocantins,1702307
TO,Arraias,,-46.94610706,-12.93441986,Arraias,,Dianpolis,Oriental do Tocantins,1702406
TO,Augustinpolis,,-47.88095679,-5.465414296,Augustinopolis,,Bico do Papagaio,Ocidental do Tocantins,1702554
TO,Aurora do Tocantins,,-46.40708298,-12.70848986,Aurora do Tocantins,,Dianpolis,Oriental do Tocantins,1702703
TO,Axix do Tocantins,,-47.77415603,-5.624309066,Axixa do Tocantins,,Bico do Papagaio,Ocidental do Tocantins,1702901
TO,Babaulndia,,-47.75881613,-7.201864532,Babaculandia,,Araguana,Ocidental do Tocantins,1703008
TO,Bandeirantes do Tocantins,,-48.5783806,-7.764859141,Bandeirantes do Tocantins,,Araguana,Ocidental do Tocantins,1703057
TO,Barra do Ouro,,-47.68713497,-7.691766599,Barra do Ouro,,Jalapo,Oriental do Tocantins,1703073
TO,Barrolndia,,-48.73146059,-9.831653365,Barrolandia,,Miracema do Tocantins,Ocidental do Tocantins,1703107
TO,Bernardo Sayo,,-48.89905435,-7.868512483,Bernardo Sayao,,Miracema do Tocantins,Ocidental do Tocantins,1703206
TO,Bom Jesus do Tocantins,,-48.16638049,-8.963348013,Bom Jesus do Tocantins,,Porto Nacional,Oriental do Tocantins,1703305
TO,Brasilndia do Tocantins,,-48.48537442,-8.384889351,Brasilandia do Tocantins,,Miracema do Tocantins,Ocidental do Tocantins,1703602
TO,Brejinho de Nazar,,-48.55866023,-11.01080506,Brejinho de Nazare,,Gurupi,Ocidental do Tocantins,1703701
TO,Buriti do Tocantins,,-48.22325013,-5.313538856,Buriti do Tocantins,,Bico do Papagaio,Ocidental do Tocantins,1703800
TO,Cachoeirinha,,-47.91419778,-6.113241647,Cachoeirinha,,Bico do Papagaio,Ocidental do Tocantins,1703826
TO,Campos Lindos,,-46.80197435,-7.971681394,Campos Lindos,,Jalapo,Oriental do Tocantins,1703842
TO,Cariri do Tocantins,,-49.17104073,-11.88899746,Cariri do Tocantins,,Gurupi,Ocidental do Tocantins,1703867
TO,Carmolndia,,-48.39595993,-7.031478778,Carmolandia,,Araguana,Ocidental do Tocantins,1703883
TO,Carrasco Bonito,,-48.03063343,-5.322661355,Carrasco Bonito,,Bico do Papagaio,Ocidental do Tocantins,1703891
TO,Caseara,,-49.94869227,-9.267406219,Caseara,,Miracema do Tocantins,Ocidental do Tocantins,1703909
TO,Centenrio,,-47.33839851,-8.958463639,Centenario,,Jalapo,Oriental do Tocantins,1704105
TO,Chapada de Areia,,-49.18310786,-10.14198858,Chapada de Areia,,Rio Formoso,Ocidental do Tocantins,1704600
TO,Chapada da Natividade,,-47.75390489,-11.62426783,Chapada da Natividade,,Dianpolis,Oriental do Tocantins,1705102
TO,Colinas do Tocantins,,-48.48159454,-8.054624676,Colinas do Tocantins,,Araguana,Ocidental do Tocantins,1705508
TO,Combinado,,-46.55207234,-12.81860767,Combinado,,Dianpolis,Oriental do Tocantins,1705557
TO,Conceio do Tocantins,,-47.29286881,-12.21727777,Conceicao do Tocantins,,Dianpolis,Oriental do Tocantins,1705607
TO,Couto Magalhes,,-49.17657157,-8.35511837,Couto Magalhaes,,Miracema do Tocantins,Ocidental do Tocantins,1706001
TO,Cristalndia,,-49.18630029,-10.59072464,Cristalandia,,Rio Formoso,Ocidental do Tocantins,1706100
TO,Crixs do Tocantins,,-48.91551383,-11.10427429,Crixas do Tocantins,,Gurupi,Ocidental do Tocantins,1706258
TO,Darcinpolis,,-47.75216111,-6.712351002,Darcinopolis,,Bico do Papagaio,Ocidental do Tocantins,1706506
TO,Dianpolis,,-46.82040907,-11.62523188,Dianopolis,,Dianpolis,Oriental do Tocantins,1707009
TO,Divinpolis do Tocantins,,-49.20541319,-9.79530114,Divinopolis do Tocantins,,Miracema do Tocantins,Ocidental do Tocantins,1707108
TO,Dois Irmos do Tocantins,,-49.06733864,-9.26129671,Dois Irmaos do Tocantins,,Miracema do Tocantins,Ocidental do Tocantins,1707207
TO,Duer,,-49.26587592,-11.34128542,Duere,,Rio Formoso,Ocidental do Tocantins,1707306
TO,Esperantina,,-48.5441476,-5.366608059,Esperantina,,Bico do Papagaio,Ocidental do Tocantins,1707405
TO,Ftima,,-48.89898266,-10.75250873,Fatima,,Rio Formoso,Ocidental do Tocantins,1707553
TO,Figueirpolis,,-49.17384673,-12.13677998,Figueiropolis,,Gurupi,Ocidental do Tocantins,1707652
TO,Filadlfia,,-47.48496414,-7.337611906,Filadelfia,,Araguana,Ocidental do Tocantins,1707702
TO,Formoso do Araguaia,,-49.52686036,-11.80514197,Formoso do Araguaia,,Rio Formoso,Ocidental do Tocantins,1708205
TO,Fortaleza do Taboco,,-48.51742642,-9.058965301,Fortaleza do Tabocao,,Miracema do Tocantins,Ocidental do Tocantins,1708254
TO,Goianorte,,-48.93689019,-8.770520805,Goianorte,,Miracema do Tocantins,Ocidental do Tocantins,1708304
TO,Goiatins,,-47.31543549,-7.70917239,Goiatins,,Jalapo,Oriental do Tocantins,1709005
TO,Guara,,-48.50864061,-8.836165658,Guarai,,Miracema do Tocantins,Ocidental do Tocantins,1709302
TO,Gurupi,,-49.07147747,-11.72977232,Gurupi,,Gurupi,Ocidental do Tocantins,1709500
TO,Ipueiras,,-48.45192623,-11.24628862,Ipueiras,,Porto Nacional,Oriental do Tocantins,1709807
TO,Itacaj,,-47.7681124,-8.390980552,Itacaja,,Jalapo,Oriental do Tocantins,1710508
TO,Itaguatins,,-47.47993595,-5.775385088,Itaguatins,,Bico do Papagaio,Ocidental do Tocantins,1710706
TO,Itapiratins,,-48.11119961,-8.384329593,Itapiratins,,Jalapo,Oriental do Tocantins,1710904
TO,Itapor do Tocantins,,-48.6932637,-8.568828612,Itapora do Tocantins,,Miracema do Tocantins,Ocidental do Tocantins,1711100
TO,Ja do Tocantins,,-48.59460829,-12.65292637,Jau do Tocantins,,Gurupi,Ocidental do Tocantins,1711506
TO,Juarina,,-49.09864319,-8.117423968,Juarina,,Miracema do Tocantins,Ocidental do Tocantins,1711803
TO,Lagoa da Confuso,,-49.62008534,-10.78869556,Lagoa da Confusao,,Rio Formoso,Ocidental do Tocantins,1711902
TO,Lagoa do Tocantins,,-47.56144663,-10.2968867,Lagoa do Tocantins,,Jalapo,Oriental do Tocantins,1711951
TO,Lajeado,,-48.35850395,-9.744682436,Lajeado,,Porto Nacional,Oriental do Tocantins,1712009
TO,Lavandeira,,-46.50667572,-12.79165879,Lavandeira,,Dianpolis,Oriental do Tocantins,1712157
TO,Lizarda,,-46.67516546,-9.594570288,Lizarda,,Jalapo,Oriental do Tocantins,1712405
TO,Luzinpolis,,-47.85682804,-6.19398966,Luzinopolis,,Bico do Papagaio,Ocidental do Tocantins,1712454
TO,Marianpolis do Tocantins,,-49.65103399,-9.798880359,Marianopolis do Tocantins,,Miracema do Tocantins,Ocidental do Tocantins,1712504
TO,Mateiros,,-46.41246574,-10.54442885,Mateiros,,Jalapo,Oriental do Tocantins,1712702
TO,Maurilndia do Tocantins,,-47.50487996,-5.952566421,Maurilandia do Tocantins,,Bico do Papagaio,Ocidental do Tocantins,1712801
TO,Miracema do Tocantins,,-48.38799131,-9.568346078,Miracema do Tocantins,,Miracema do Tocantins,Ocidental do Tocantins,1713205
TO,Miranorte,,-48.59263194,-9.517404731,Miranorte,,Miracema do Tocantins,Ocidental do Tocantins,1713304
TO,Monte do Carmo,,-48.11042003,-10.76354219,Monte do Carmo,,Porto Nacional,Oriental do Tocantins,1713601
TO,Monte Santo do Tocantins,,-48.9908906,-10.00559143,Monte Santo do Tocantins,,Miracema do Tocantins,Ocidental do Tocantins,1713700
TO,Palmeiras do Tocantins,,-47.55868353,-6.611862335,Palmeiras do Tocantins,,Bico do Papagaio,Ocidental do Tocantins,1713809
TO,Muricilndia,,-48.60674528,-7.138519285,Muricilandia,,Araguana,Ocidental do Tocantins,1713957
TO,Natividade,,-47.72725753,-11.70535738,Natividade,,Dianpolis,Oriental do Tocantins,1714203
TO,Nazar,,-47.66697718,-6.372557969,Nazare,,Bico do Papagaio,Ocidental do Tocantins,1714302
TO,Nova Olinda,,-48.42480679,-7.633314911,Nova Olinda,,Araguana,Ocidental do Tocantins,1714880
TO,Nova Rosalndia,,-48.90618072,-10.56687114,Nova Rosalandia,,Rio Formoso,Ocidental do Tocantins,1715002
TO,Novo Acordo,,-47.66814839,-9.968486466,Novo Acordo,,Jalapo,Oriental do Tocantins,1715101
TO,Novo Alegre,,-46.57729735,-12.90993867,Novo Alegre,,Dianpolis,Oriental do Tocantins,1715150
TO,Novo Jardim,,-46.6307873,-11.81587505,Novo Jardim,,Dianpolis,Oriental do Tocantins,1715259
TO,Oliveira de Ftima,,-48.90740157,-10.70836271,Oliveira de Fatima,,Rio Formoso,Ocidental do Tocantins,1715507
TO,Palmeirante,,-47.93424971,-7.857561376,Palmeirante,,Araguana,Ocidental do Tocantins,1715705
TO,Palmeirpolis,,-48.41341396,-13.03988843,Palmeiropolis,,Gurupi,Ocidental do Tocantins,1715754
TO,Paraso do Tocantins,,-48.88663008,-10.17122076,Paraiso do Tocantins,,Rio Formoso,Ocidental do Tocantins,1716109
TO,Paran,,-47.88408373,-12.62048149,Parana,,Dianpolis,Oriental do Tocantins,1716208
TO,Pau D'Arco,,-49.36330648,-7.539998356,Pau D'Arco,,Araguana,Ocidental do Tocantins,1716307
TO,Pedro Afonso,,-48.17755611,-8.964449592,Pedro Afonso,,Porto Nacional,Oriental do Tocantins,1716505
TO,Peixe,,-48.53781063,-12.02977383,Peixe,,Gurupi,Ocidental do Tocantins,1716604
TO,Pequizeiro,,-48.93517987,-8.593340654,Pequizeiro,,Miracema do Tocantins,Ocidental do Tocantins,1716653
TO,Colmia,,-48.75706659,-8.729371807,Colmeia,,Miracema do Tocantins,Ocidental do Tocantins,1716703
TO,Pindorama do Tocantins,,-47.57568772,-11.13820258,Pindorama do Tocantins,,Dianpolis,Oriental do Tocantins,1717008
TO,Piraqu,,-48.29370739,-6.769777033,Piraque,,Araguana,Ocidental do Tocantins,1717206
TO,Pium,,-49.16665801,-10.44093112,Pium,,Rio Formoso,Ocidental do Tocantins,1717503
TO,Ponte Alta do Bom Jesus,,-46.46958679,-12.08781291,Ponte Alta do Bom Jesus,,Dianpolis,Oriental do Tocantins,1717800
TO,Ponte Alta do Tocantins,,-47.54118036,-10.74067285,Ponte Alta do Tocantins,,Jalapo,Oriental do Tocantins,1717909
TO,Porto Alegre do Tocantins,,-47.0474256,-11.6072591,Porto Alegre do Tocantins,,Dianpolis,Oriental do Tocantins,1718006
TO,Porto Nacional,,-48.41215346,-10.70856992,Porto Nacional,,Porto Nacional,Oriental do Tocantins,1718204
TO,Praia Norte,,-47.81473173,-5.396712877,Praia Norte,,Bico do Papagaio,Ocidental do Tocantins,1718303
TO,Presidente Kennedy,,-48.50433067,-8.529960828,Presidente Kennedy,,Miracema do Tocantins,Ocidental do Tocantins,1718402
TO,Pugmil,,-48.89422045,-10.42430716,Pugmil,,Rio Formoso,Ocidental do Tocantins,1718451
TO,Recursolndia,,-47.2380412,-8.735360454,Recursolandia,,Jalapo,Oriental do Tocantins,1718501
TO,Riachinho,,-48.1410455,-6.442211388,Riachinho,,Bico do Papagaio,Ocidental do Tocantins,1718550
TO,Rio da Conceio,,-46.8803997,-11.40494002,Rio da Conceicao,,Dianpolis,Oriental do Tocantins,1718659
TO,Rio dos Bois,,-48.53304797,-9.343742239,Rio dos Bois,,Miracema do Tocantins,Ocidental do Tocantins,1718709
TO,Rio Sono,,-47.89994164,-9.347789334,Rio Sono,,Jalapo,Oriental do Tocantins,1718758
TO,Sampaio,,-47.87579246,-5.349295617,Sampaio,,Bico do Papagaio,Ocidental do Tocantins,1718808
TO,Sandolndia,,-49.93338815,-12.54160017,Sandolandia,,Rio Formoso,Ocidental do Tocantins,1718840
TO,Santa F do Araguaia,,-48.6939418,-7.149936385,Santa Fe do Araguaia,,Araguana,Ocidental do Tocantins,1718865
TO,Santa Maria do Tocantins,,-47.74527042,-8.774976449,Santa Maria do Tocantins,,Porto Nacional,Oriental do Tocantins,1718881
TO,Santa Rita do Tocantins,,-48.90929401,-10.86645537,Santa Rita do Tocantins,,Gurupi,Ocidental do Tocantins,1718899
TO,Santa Rosa do Tocantins,,-48.11995422,-11.451404,Santa Rosa do Tocantins,,Dianpolis,Oriental do Tocantins,1718907
TO,Santa Tereza do Tocantins,,-47.80628832,-10.28236153,Santa Tereza do Tocantins,,Jalapo,Oriental do Tocantins,1719004
TO,Santa Terezinha do Tocantins,,-47.68428536,-6.436997618,Santa Terezinha do Tocantins,,Bico do Papagaio,Ocidental do Tocantins,1720002
TO,So Bento do Tocantins,,-47.91939229,-6.044999257,Sao Bento do Tocantins,,Bico do Papagaio,Ocidental do Tocantins,1720101
TO,So Flix do Tocantins,,-46.65498083,-10.17328585,Sao Felix do Tocantins,,Jalapo,Oriental do Tocantins,1720150
TO,So Miguel do Tocantins,,-47.57300234,-5.553819529,Sao Miguel do Tocantins,,Bico do Papagaio,Ocidental do Tocantins,1720200
TO,So Salvador do Tocantins,,-48.23208499,-12.74743341,Sao Salvador do Tocantins,,Gurupi,Ocidental do Tocantins,1720259
TO,So Sebastio do Tocantins,,-48.20383415,-5.258961454,Sao Sebastiao do Tocantins,,Bico do Papagaio,Ocidental do Tocantins,1720309
TO,So Valrio,,-48.23294843,-11.97306746,Sao Valerio,,Dianpolis,Oriental do Tocantins,1720499
TO,Silvanpolis,,-48.17982414,-11.14986131,Silvanopolis,,Porto Nacional,Oriental do Tocantins,1720655
TO,Stio Novo do Tocantins,,-47.63742265,-5.604726857,Sitio Novo do Tocantins,,Bico do Papagaio,Ocidental do Tocantins,1720804
TO,Sucupira,,-48.91112628,-11.98622151,Sucupira,,Gurupi,Ocidental do Tocantins,1720853
TO,Taguatinga,,-46.4387317,-12.39614174,Taguatinga,,Dianpolis,Oriental do Tocantins,1720903
TO,Taipas do Tocantins,,-46.9845718,-12.19283721,Taipas do Tocantins,,Dianpolis,Oriental do Tocantins,1720937
TO,Talism,,-49.09111843,-12.78753841,Talisma,,Gurupi,Ocidental do Tocantins,1720978
TO,Palmas,TRUE,-48.35104371,-10.16325333,Palmas,,Porto Nacional,Oriental do Tocantins,1721000
TO,Tocantnia,,-48.37587967,-9.558147734,Tocantinia,,Porto Nacional,Oriental do Tocantins,1721109
TO,Tocantinpolis,,-47.42741293,-6.325634376,Tocantinopolis,,Bico do Papagaio,Ocidental do Tocantins,1721208
TO,Tupirama,,-48.2066848,-8.980569549,Tupirama,,Miracema do Tocantins,Ocidental do Tocantins,1721257
TO,Tupiratins,,-48.12299574,-8.395529997,Tupiratins,,Miracema do Tocantins,Ocidental do Tocantins,1721307
TO,Wanderlndia,,-47.95626773,-6.850125517,Wanderlandia,,Araguana,Ocidental do Tocantins,1722081
TO,Xambio,,-48.53160107,-6.41188502,Xambioa,,Araguana,Ocidental do Tocantins,1722107
MA,Aailndia,,-47.50666459,-4.951377,Acailandia,,Imperatriz,Oeste Maranhense,2100055
MA,Afonso Cunha,,-43.320869,-4.135015477,Afonso Cunha,,Coelho Neto,Leste Maranhense,2100105
MA,gua Doce do Maranho,,-42.1155512,-2.840278279,Agua Doce do Maranhao,,Baixo Parnaba Maranhense,Leste Maranhense,2100154
MA,Alcntara,,-44.41701254,-2.403276525,Alcantara,,Litoral Ocidental Maranhense,Norte Maranhense,2100204
MA,Aldeias Altas,,-43.46873485,-4.630779495,Aldeias Altas,,Coelho Neto,Leste Maranhense,2100303
MA,Altamira do Maranho,,-45.46467583,-4.162269267,Altamira do Maranhao,,Pindar,Oeste Maranhense,2100402
MA,Alto Alegre do Maranho,,-44.44824749,-4.207227,Alto Alegre do Maranhao,,Cod,Leste Maranhense,2100436
MA,Alto Alegre do Pindar,,-45.84207962,-3.665170375,Alto Alegre do Pindare,,Pindar,Oeste Maranhense,2100477
MA,Alto Parnaba,,-45.92734401,-9.108365932,Alto Parnaiba,,Gerais de Balsas,Sul Maranhense,2100501
MA,Amap do Maranho,,-46.0091799,-1.680921495,Amapa do Maranhao,,Gurupi,Oeste Maranhense,2100550
MA,Amarante do Maranho,,-46.75063755,-5.557662,Amarante do Maranhao,,Imperatriz,Oeste Maranhense,2100600
MA,Anajatuba,,-44.62067003,-3.257554842,Anajatuba,,Baixada Maranhense,Norte Maranhense,2100709
MA,Anapurus,,-43.10579251,-3.667034662,Anapurus,,Chapadinha,Leste Maranhense,2100808
MA,Apicum-Au,,-45.07665207,-1.530591578,Apicum-Acu,,Litoral Ocidental Maranhense,Norte Maranhense,2100832
MA,Araguan,,-45.66879448,-2.949125623,Araguana,,Pindar,Oeste Maranhense,2100873
MA,Araioses,,-41.89913945,-2.889255846,Araioses,,Baixo Parnaba Maranhense,Leste Maranhense,2100907
MA,Arame,,-46.01363628,-4.886081505,Arame,,Alto Mearim e Graja,Centro Maranhense,2100956
MA,Arari,,-44.77883465,-3.45917097,Arari,,Baixada Maranhense,Norte Maranhense,2101004
MA,Axix,,-44.05458581,-2.837796837,Axixa,,Rosrio,Norte Maranhense,2101103
MA,Bacabal,,-44.78155596,-4.23152463,Bacabal,,Mdio Mearim,Centro Maranhense,2101202
MA,Bacabeira,,-44.31542299,-2.985824779,Bacabeira,,Rosrio,Norte Maranhense,2101251
MA,Bacuri,,-45.13734894,-1.724046319,Bacuri,,Litoral Ocidental Maranhense,Norte Maranhense,2101301
MA,Bacurituba,,-44.73574201,-2.710871977,Bacurituba,,Litoral Ocidental Maranhense,Norte Maranhense,2101350
MA,Balsas,,-46.03899267,-7.53116999,Balsas,,Gerais de Balsas,Sul Maranhense,2101400
MA,Baro de Graja,,-43.0264527,-6.758955206,Barao de Grajau,,Chapadas do Alto Itapecuru,Leste Maranhense,2101509
MA,Barra do Corda,,-45.23901102,-5.5083395,Barra do Corda,,Alto Mearim e Graja,Centro Maranhense,2101608
MA,Barreirinhas,,-42.82780251,-2.750085949,Barreirinhas,,Lenis Maranhenses,Norte Maranhense,2101707
MA,Belgua,,-43.51006164,-3.156772228,Belagua,,Chapadinha,Leste Maranhense,2101731
MA,Bela Vista do Maranho,,-45.24824588,-3.73773325,Bela Vista do Maranhao,,Baixada Maranhense,Norte Maranhense,2101772
MA,Benedito Leite,,-44.5598568,-7.218799795,Benedito Leite,,Chapadas Das Mangabeiras,Sul Maranhense,2101806
MA,Bequimo,,-44.78573016,-2.462062995,Bequimao,,Litoral Ocidental Maranhense,Norte Maranhense,2101905
MA,Bernardo do Mearim,,-44.7643231,-4.630287491,Bernardo do Mearim,,Mdio Mearim,Centro Maranhense,2101939
MA,Boa Vista do Gurupi,,-46.29871005,-1.793296136,Boa Vista do Gurupi,,Gurupi,Oeste Maranhense,2101970
MA,Bom Jardim,,-45.60188939,-3.544160978,Bom Jardim,,Pindar,Oeste Maranhense,2102002
MA,Bom Jesus das Selvas,,-46.85324122,-4.489968353,Bom Jesus das Selvas,,Pindar,Oeste Maranhense,2102036
MA,Bom Lugar,,-45.03110786,-4.375509602,Bom Lugar,,Mdio Mearim,Centro Maranhense,2102077
MA,Brejo,,-42.75084783,-3.679178,Brejo,,Chapadinha,Leste Maranhense,2102101
MA,Brejo de Areia,,-45.58209527,-4.330629898,Brejo de Areia,,Pindar,Oeste Maranhense,2102150
MA,Buriti,,-42.92510618,-3.9455715,Buriti,,Chapadinha,Leste Maranhense,2102200
MA,Buriti Bravo,,-43.83562154,-5.835288132,Buriti Bravo,,Caxias,Leste Maranhense,2102309
MA,Buriticupu,,-46.45149532,-4.325947726,Buriticupu,,Pindar,Oeste Maranhense,2102325
MA,Buritirana,,-47.01722509,-5.588915142,Buritirana,,Imperatriz,Oeste Maranhense,2102358
MA,Cachoeira Grande,,-44.05968502,-2.931921039,Cachoeira Grande,,Rosrio,Norte Maranhense,2102374
MA,Cajapi,,-44.67337716,-2.882882203,Cajapio,,Litoral Ocidental Maranhense,Norte Maranhense,2102408
MA,Cajari,,-45.00796534,-3.323868831,Cajari,,Baixada Maranhense,Norte Maranhense,2102507
MA,Campestre do Maranho,,-47.36763286,-6.164716646,Campestre do Maranhao,,Porto Franco,Sul Maranhense,2102556
MA,Cndido Mendes,,-45.73726837,-1.453889109,Candido Mendes,,Gurupi,Oeste Maranhense,2102606
MA,Cantanhede,,-44.38181614,-3.628364312,Cantanhede,,Itapecuru Mirim,Norte Maranhense,2102705
MA,Capinzal do Norte,,-44.33043625,-4.721245389,Capinzal do Norte,,Cod,Leste Maranhense,2102754
MA,Carolina,,-47.4700918,-7.330783005,Carolina,,Porto Franco,Sul Maranhense,2102804
MA,Carutapera,,-46.02315083,-1.200602,Carutapera,,Gurupi,Oeste Maranhense,2102903
MA,Caxias,,-43.35853943,-4.86167499,Caxias,,Caxias,Leste Maranhense,2103000
MA,Cedral,,-44.53078953,-1.997915926,Cedral,,Litoral Ocidental Maranhense,Norte Maranhense,2103109
MA,Central do Maranho,,-44.8318437,-2.191313908,Central do Maranhao,,Litoral Ocidental Maranhense,Norte Maranhense,2103125
MA,Centro do Guilherme,,-46.03996011,-2.456985082,Centro do Guilherme,,Gurupi,Oeste Maranhense,2103158
MA,Centro Novo do Maranho,,-46.12840896,-2.144291699,Centro Novo do Maranhao,,Gurupi,Oeste Maranhense,2103174
MA,Chapadinha,,-43.36112078,-3.74002452,Chapadinha,,Chapadinha,Leste Maranhense,2103208
MA,Cidelndia,,-47.78423278,-5.177421047,Cidelandia,,Imperatriz,Oeste Maranhense,2103257
MA,Cod,,-43.88608024,-4.4513375,Codo,,Cod,Leste Maranhense,2103307
MA,Coelho Neto,,-43.01401362,-4.2547375,Coelho Neto,,Coelho Neto,Leste Maranhense,2103406
MA,Colinas,,-44.24978023,-6.02736552,Colinas,,Chapadas do Alto Itapecuru,Leste Maranhense,2103505
MA,Conceio do Lago-Au,,-44.90301591,-3.841118458,Conceicao do Lago-Acu,,Baixada Maranhense,Norte Maranhense,2103554
MA,Coroat,,-44.1255992,-4.128976,Coroata,,Cod,Leste Maranhense,2103604
MA,Cururupu,,-44.86776162,-1.825520781,Cururupu,,Litoral Ocidental Maranhense,Norte Maranhense,2103703
MA,Davinpolis,,-47.40499639,-5.534456216,Davinopolis,,Imperatriz,Oeste Maranhense,2103752
MA,Dom Pedro,,-44.44000991,-5.038447635,Dom Pedro,,Presidente Dutra,Centro Maranhense,2103802
MA,Duque Bacelar,,-42.9441802,-4.147819097,Duque Bacelar,,Coelho Neto,Leste Maranhense,2103901
MA,Esperantinpolis,,-44.8860687,-4.870300898,Esperantinopolis,,Mdio Mearim,Centro Maranhense,2104008
MA,Estreito,,-47.44788299,-6.56808498,Estreito,,Porto Franco,Sul Maranhense,2104057
MA,Feira Nova do Maranho,,-46.68735522,-6.963135541,Feira Nova do Maranhao,,Gerais de Balsas,Sul Maranhense,2104073
MA,Fernando Falco,,-44.9107074,-6.154978463,Fernando Falcao,,Alto Mearim e Graja,Centro Maranhense,2104081
MA,Formosa da Serra Negra,,-46.18635701,-6.435304106,Formosa da Serra Negra,,Alto Mearim e Graja,Centro Maranhense,2104099
MA,Fortaleza dos Nogueiras,,-46.18555754,-6.965926088,Fortaleza dos Nogueiras,,Chapadas Das Mangabeiras,Sul Maranhense,2104107
MA,Fortuna,,-44.16062843,-5.736224133,Fortuna,,Presidente Dutra,Centro Maranhense,2104206
MA,Godofredo Viana,,-45.77175481,-1.409800187,Godofredo Viana,,Gurupi,Oeste Maranhense,2104305
MA,Gonalves Dias,,-44.30590654,-5.14395557,Goncalves Dias,,Presidente Dutra,Centro Maranhense,2104404
MA,Governador Archer,,-44.27575653,-5.025387824,Governador Archer,,Presidente Dutra,Centro Maranhense,2104503
MA,Governador Edison Lobo,,-47.36893584,-5.747411739,Governador Edison Lobao,,Imperatriz,Oeste Maranhense,2104552
MA,Governador Eugnio Barros,,-44.24696265,-5.322491002,Governador Eugenio Barros,,Presidente Dutra,Centro Maranhense,2104602
MA,Governador Luiz Rocha,,-44.07088734,-5.472864685,Governador Luiz Rocha,,Presidente Dutra,Centro Maranhense,2104628
MA,Governador Newton Bello,,-45.6745018,-3.42970472,Governador Newton Bello,,Pindar,Oeste Maranhense,2104651
MA,Governador Nunes Freire,,-45.88148113,-2.13496236,Governador Nunes Freire,,Gurupi,Oeste Maranhense,2104677
MA,Graa Aranha,,-44.33579126,-5.404821213,Graca Aranha,,Presidente Dutra,Centro Maranhense,2104701
MA,Graja,,-46.14239564,-5.818548431,Grajau,,Alto Mearim e Graja,Centro Maranhense,2104800
MA,Guimares,,-44.59774646,-2.135077158,Guimaraes,,Litoral Ocidental Maranhense,Norte Maranhense,2104909
MA,Humberto de Campos,,-43.46509214,-2.591223972,Humberto de Campos,,Lenis Maranhenses,Norte Maranhense,2105005
MA,Icatu,,-44.06584847,-2.774827863,Icatu,,Rosrio,Norte Maranhense,2105104
MA,Igarap do Meio,,-45.1833277,-3.636708522,Igarape do Meio,,Baixada Maranhense,Norte Maranhense,2105153
MA,Igarap Grande,,-44.86740335,-4.660853806,Igarape Grande,,Mdio Mearim,Centro Maranhense,2105203
MA,Imperatriz,,-47.47981081,-5.526524025,Imperatriz,,Imperatriz,Oeste Maranhense,2105302
MA,Itaipava do Graja,,-45.7926825,-5.144582262,Itaipava do Grajau,,Alto Mearim e Graja,Centro Maranhense,2105351
MA,Itapecuru Mirim,,-44.35426339,-3.39904548,Itapecuru Mirim,,Itapecuru Mirim,Norte Maranhense,2105401
MA,Itinga do Maranho,,-47.52790996,-4.455003998,Itinga do Maranhao,,Imperatriz,Oeste Maranhense,2105427
MA,Jatob,,-44.21991477,-5.819666937,Jatoba,,Chapadas do Alto Itapecuru,Leste Maranhense,2105450
MA,Jenipapo dos Vieiras,,-45.63337911,-5.369424926,Jenipapo dos Vieiras,,Alto Mearim e Graja,Centro Maranhense,2105476
MA,Joo Lisboa,,-47.40503615,-5.453662942,Joao Lisboa,,Imperatriz,Oeste Maranhense,2105500
MA,Joselndia,,-44.69915256,-4.972693329,Joselandia,,Alto Mearim e Graja,Centro Maranhense,2105609
MA,Junco do Maranho,,-46.07072607,-1.874609598,Junco do Maranhao,,Gurupi,Oeste Maranhense,2105658
MA,Lago da Pedra,,-45.12589136,-4.564744515,Lago da Pedra,,Pindar,Oeste Maranhense,2105708
MA,Lago do Junco,,-45.05134439,-4.607643218,Lago do Junco,,Mdio Mearim,Centro Maranhense,2105807
MA,Lago Verde,,-44.93763523,-4.038711295,Lago Verde,,Mdio Mearim,Centro Maranhense,2105906
MA,Lagoa do Mato,,-43.52755912,-6.045277297,Lagoa do Mato,,Chapadas do Alto Itapecuru,Leste Maranhense,2105922
MA,Lago dos Rodrigues,,-44.97644233,-4.612375777,Lago dos Rodrigues,,Mdio Mearim,Centro Maranhense,2105948
MA,Lagoa Grande do Maranho,,-45.39061428,-4.993123737,Lagoa Grande do Maranhao,,Pindar,Oeste Maranhense,2105963
MA,Lajeado Novo,,-47.03244752,-6.191609227,Lajeado Novo,,Imperatriz,Oeste Maranhense,2105989
MA,Lima Campos,,-44.46934033,-4.517045987,Lima Campos,,Mdio Mearim,Centro Maranhense,2106003
MA,Loreto,,-45.13924164,-7.094454165,Loreto,,Chapadas Das Mangabeiras,Sul Maranhense,2106102
MA,Lus Domingues,,-45.89533199,-1.325460244,Luis Domingues,,Gurupi,Oeste Maranhense,2106201
MA,Magalhes de Almeida,,-42.20150669,-3.396667674,Magalhaes de Almeida,,Baixo Parnaba Maranhense,Leste Maranhense,2106300
MA,Maracaum,,-45.95863904,-2.05616455,Maracacume,,Gurupi,Oeste Maranhense,2106326
MA,Maraj do Sena,,-45.45723765,-4.620313324,Maraja do Sena,,Pindar,Oeste Maranhense,2106359
MA,Maranhozinho,,-45.85561145,-2.235616992,Maranhaozinho,,Gurupi,Oeste Maranhense,2106375
MA,Mata Roma,,-43.12038942,-3.61904551,Mata Roma,,Chapadinha,Leste Maranhense,2106409
MA,Matinha,,-45.03642894,-3.09840003,Matinha,,Baixada Maranhense,Norte Maranhense,2106508
MA,Mates,,-43.20120828,-5.522465019,Matoes,,Caxias,Leste Maranhense,2106607
MA,Mates do Norte,,-44.55024451,-3.62751878,Matoes do Norte,,Itapecuru Mirim,Norte Maranhense,2106631
MA,Milagres do Maranho,,-42.61075283,-3.582206641,Milagres do Maranhao,,Chapadinha,Leste Maranhense,2106672
MA,Mirador,,-44.36260979,-6.377565695,Mirador,,Chapadas do Alto Itapecuru,Leste Maranhense,2106706
MA,Miranda do Norte,,-44.58427569,-3.562644774,Miranda do Norte,,Itapecuru Mirim,Norte Maranhense,2106755
MA,Mirinzal,,-44.78575599,-2.064224192,Mirinzal,,Litoral Ocidental Maranhense,Norte Maranhense,2106805
MA,Mono,,-45.24758467,-3.49393248,Moncao,,Baixada Maranhense,Norte Maranhense,2106904
MA,Montes Altos,,-47.07043951,-5.828562504,Montes Altos,,Imperatriz,Oeste Maranhense,2107001
MA,Morros,,-44.04454454,-2.861478953,Morros,,Rosrio,Norte Maranhense,2107100
MA,Nina Rodrigues,,-43.90448476,-3.462464289,Nina Rodrigues,,Itapecuru Mirim,Norte Maranhense,2107209
MA,Nova Colinas,,-46.25932522,-7.120566004,Nova Colinas,,Chapadas Das Mangabeiras,Sul Maranhense,2107258
MA,Nova Iorque,,-44.04862673,-6.733203306,Nova Iorque,,Chapadas do Alto Itapecuru,Leste Maranhense,2107308
MA,Nova Olinda do Maranho,,-45.70453604,-2.799886544,Nova Olinda do Maranhao,,Pindar,Oeste Maranhense,2107357
MA,Olho d'gua das Cunhs,,-45.11957962,-4.13727593,Olho d'Agua das Cunhas,,Mdio Mearim,Centro Maranhense,2107407
MA,Olinda Nova do Maranho,,-45.00323537,-2.997477615,Olinda Nova do Maranhao,,Baixada Maranhense,Norte Maranhense,2107456
MA,Pao do Lumiar,,-44.09869235,-2.528063,Paco do Lumiar,,Aglomerao Urbana de So Lus,Norte Maranhense,2107506
MA,Palmeirndia,,-44.90446389,-2.647774278,Palmeirandia,,Baixada Maranhense,Norte Maranhense,2107605
MA,Paraibano,,-43.98576205,-6.431825414,Paraibano,,Chapadas do Alto Itapecuru,Leste Maranhense,2107704
MA,Parnarama,,-43.09040135,-5.684467176,Parnarama,,Caxias,Leste Maranhense,2107803
MA,Passagem Franca,,-43.78174523,-6.173994426,Passagem Franca,,Chapadas do Alto Itapecuru,Leste Maranhense,2107902
MA,Pastos Bons,,-44.08860251,-6.604027732,Pastos Bons,,Chapadas do Alto Itapecuru,Leste Maranhense,2108009
MA,Paulino Neves,,-42.54542398,-2.71820599,Paulino Neves,,Lenis Maranhenses,Norte Maranhense,2108058
MA,Paulo Ramos,,-45.23998,-4.447956766,Paulo Ramos,,Pindar,Oeste Maranhense,2108108
MA,Pedreiras,,-44.60373488,-4.569350688,Pedreiras,,Mdio Mearim,Centro Maranhense,2108207
MA,Pedro do Rosrio,,-45.34645373,-2.968114673,Pedro do Rosario,,Baixada Maranhense,Norte Maranhense,2108256
MA,Penalva,,-45.17646169,-3.293233318,Penalva,,Baixada Maranhense,Norte Maranhense,2108306
MA,Peri Mirim,,-44.8502907,-2.573054649,Peri Mirim,,Baixada Maranhense,Norte Maranhense,2108405
MA,Peritor,,-44.32585352,-4.370225118,Peritoro,,Cod,Leste Maranhense,2108454
MA,Pindar-Mirim,,-45.34686792,-3.605500575,Pindare-Mirim,,Pindar,Oeste Maranhense,2108504
MA,Pinheiro,,-45.0839266,-2.5227405,Pinheiro,,Baixada Maranhense,Norte Maranhense,2108603
MA,Pio XII,,-45.16996039,-3.88758753,Pio XII,,Mdio Mearim,Centro Maranhense,2108702
MA,Pirapemas,,-44.22828088,-3.725329066,Pirapemas,,Itapecuru Mirim,Norte Maranhense,2108801
MA,Poo de Pedras,,-44.9515514,-4.750025211,Pocao de Pedras,,Mdio Mearim,Centro Maranhense,2108900
MA,Porto Franco,,-47.3821649,-6.354181864,Porto Franco,,Porto Franco,Sul Maranhense,2109007
MA,Porto Rico do Maranho,,-44.58374789,-1.857223215,Porto Rico do Maranhao,,Litoral Ocidental Maranhense,Norte Maranhense,2109056
MA,Presidente Dutra,,-44.49291886,-5.282374258,Presidente Dutra,,Presidente Dutra,Centro Maranhense,2109106
MA,Presidente Juscelino,,-44.07677942,-2.928229246,Presidente Juscelino,,Rosrio,Norte Maranhense,2109205
MA,Presidente Mdici,,-45.82070865,-2.383664047,Presidente Medici,,Pindar,Oeste Maranhense,2109239
MA,Presidente Sarney,,-45.37130226,-2.59553056,Presidente Sarney,,Baixada Maranhense,Norte Maranhense,2109270
MA,Presidente Vargas,,-44.03340187,-3.402011522,Presidente Vargas,,Itapecuru Mirim,Norte Maranhense,2109304
MA,Primeira Cruz,,-43.4424433,-2.510583172,Primeira Cruz,,Lenis Maranhenses,Norte Maranhense,2109403
MA,Raposa,,-44.10251616,-2.415074903,Raposa,,Aglomerao Urbana de So Lus,Norte Maranhense,2109452
MA,Riacho,,-46.62335014,-7.364565,Riachao,,Gerais de Balsas,Sul Maranhense,2109502
MA,Ribamar Fiquene,,-47.38347779,-5.933822859,Ribamar Fiquene,,Imperatriz,Oeste Maranhense,2109551
MA,Rosrio,,-44.2475186,-2.941543035,Rosario,,Rosrio,Norte Maranhense,2109601
MA,Sambaba,,-45.3442032,-7.138350898,Sambaiba,,Chapadas Das Mangabeiras,Sul Maranhense,2109700
MA,Santa Filomena do Maranho,,-44.56371404,-5.499766807,Santa Filomena do Maranhao,,Alto Mearim e Graja,Centro Maranhense,2109759
MA,Santa Helena,,-45.30516119,-2.234532509,Santa Helena,,Baixada Maranhense,Norte Maranhense,2109809
MA,Santa Ins,,-45.37827245,-3.65857452,Santa Ines,,Pindar,Oeste Maranhense,2109908
MA,Santa Luzia,,-45.66501172,-3.968391465,Santa Luzia,,Pindar,Oeste Maranhense,2110005
MA,Santa Luzia do Paru,,-45.77646156,-2.546161475,Santa Luzia do Parua,,Pindar,Oeste Maranhense,2110039
MA,Santa Quitria do Maranho,,-42.56287301,-3.498484995,Santa Quiteria do Maranhao,,Baixo Parnaba Maranhense,Leste Maranhense,2110104
MA,Santa Rita,,-44.31994808,-3.134116766,Santa Rita,,Rosrio,Norte Maranhense,2110203
MA,Santana do Maranho,,-42.40076776,-3.113068343,Santana do Maranhao,,Baixo Parnaba Maranhense,Leste Maranhense,2110237
MA,Santo Amaro do Maranho,,-43.25528494,-2.502721199,Santo Amaro do Maranhao,,Lenis Maranhenses,Norte Maranhense,2110278
MA,Santo Antnio dos Lopes,,-44.36144743,-4.873819576,Santo Antonio dos Lopes,,Mdio Mearim,Centro Maranhense,2110302
MA,So Benedito do Rio Preto,,-43.52999187,-3.332766004,Sao Benedito do Rio Preto,,Chapadinha,Leste Maranhense,2110401
MA,So Bento,,-44.82834518,-2.6970075,Sao Bento,,Baixada Maranhense,Norte Maranhense,2110500
MA,So Bernardo,,-42.42300966,-3.36543651,Sao Bernardo,,Baixo Parnaba Maranhense,Leste Maranhense,2110609
MA,So Domingos do Azeito,,-44.65042391,-6.80442501,Sao Domingos do Azeitao,,Chapadas Das Mangabeiras,Sul Maranhense,2110658
MA,So Domingos do Maranho,,-44.39287926,-5.565642,Sao Domingos do Maranhao,,Presidente Dutra,Centro Maranhense,2110708
MA,So Flix de Balsas,,-44.81144766,-7.084685154,Sao Felix de Balsas,,Chapadas Das Mangabeiras,Sul Maranhense,2110807
MA,So Francisco do Brejo,,-47.3911374,-5.130200787,Sao Francisco do Brejao,,Imperatriz,Oeste Maranhense,2110856
MA,So Francisco do Maranho,,-42.86532173,-6.252797917,Sao Francisco do Maranhao,,Chapadas do Alto Itapecuru,Leste Maranhense,2110906
MA,So Joo Batista,,-44.81176185,-2.953332913,Sao Joao Batista,,Baixada Maranhense,Norte Maranhense,2111003
MA,So Joo do Car,,-46.25492548,-3.560803407,Sao Joao do Caru,,Pindar,Oeste Maranhense,2111029
MA,So Joo do Paraso,,-47.05061042,-6.466222286,Sao Joao do Paraiso,,Porto Franco,Sul Maranhense,2111052
MA,So Joo do Soter,,-43.8181818,-5.115739264,Sao Joao do Soter,,Caxias,Leste Maranhense,2111078
MA,So Joo dos Patos,,-43.70291017,-6.498208152,Sao Joao dos Patos,,Chapadas do Alto Itapecuru,Leste Maranhense,2111102
MA,So Jos de Ribamar,,-44.05754812,-2.55585852,Sao Jose de Ribamar,,Aglomerao Urbana de So Lus,Norte Maranhense,2111201
MA,So Jos dos Baslios,,-44.58244652,-5.048687245,Sao Jose dos Basilios,,Presidente Dutra,Centro Maranhense,2111250
MA,So Lus,TRUE,-44.29791856,-2.531885985,Sao Luis,,Aglomerao Urbana de So Lus,Norte Maranhense,2111300
MA,So Lus Gonzaga do Maranho,,-44.6627085,-4.373918491,Sao Luis Gonzaga do Maranhao,,Mdio Mearim,Centro Maranhense,2111409
MA,So Mateus do Maranho,,-44.46856281,-4.03455051,Sao Mateus do Maranhao,,Mdio Mearim,Centro Maranhense,2111508
MA,So Pedro da gua Branca,,-48.42362359,-5.088910997,Sao Pedro da Agua Branca,,Imperatriz,Oeste Maranhense,2111532
MA,So Pedro dos Crentes,,-46.53258035,-6.828555641,Sao Pedro dos Crentes,,Porto Franco,Sul Maranhense,2111573
MA,So Raimundo das Mangabeiras,,-45.48483143,-7.026962657,Sao Raimundo das Mangabeiras,,Chapadas Das Mangabeiras,Sul Maranhense,2111607
MA,So Raimundo do Doca Bezerra,,-45.08416279,-5.103181845,Sao Raimundo do Doca Bezerra,,Mdio Mearim,Centro Maranhense,2111631
MA,So Roberto,,-44.99190116,-5.017366882,Sao Roberto,,Mdio Mearim,Centro Maranhense,2111672
MA,So Vicente Ferrer,,-44.88690458,-2.890731064,Sao Vicente Ferrer,,Baixada Maranhense,Norte Maranhense,2111706
MA,Satubinha,,-45.23362958,-4.035735495,Satubinha,,Mdio Mearim,Centro Maranhense,2111722
MA,Senador Alexandre Costa,,-44.05630151,-5.261076544,Senador Alexandre Costa,,Presidente Dutra,Centro Maranhense,2111748
MA,Senador La Rocque,,-47.28919142,-5.441832495,Senador La Rocque,,Imperatriz,Oeste Maranhense,2111763
MA,Serrano do Maranho,,-45.11464085,-1.852645542,Serrano do Maranhao,,Litoral Ocidental Maranhense,Norte Maranhense,2111789
MA,Stio Novo,,-46.69498334,-5.870629891,Sitio Novo,,Alto Mearim e Graja,Centro Maranhense,2111805
MA,Sucupira do Norte,,-44.18860271,-6.478284448,Sucupira do Norte,,Chapadas do Alto Itapecuru,Leste Maranhense,2111904
MA,Sucupira do Riacho,,-43.54585332,-6.420108405,Sucupira do Riachao,,Chapadas do Alto Itapecuru,Leste Maranhense,2111953
MA,Tasso Fragoso,,-45.74412352,-8.479831018,Tasso Fragoso,,Gerais de Balsas,Sul Maranhense,2112001
MA,Timbiras,,-43.93843397,-4.253840505,Timbiras,,Cod,Leste Maranhense,2112100
MA,Timon,,-42.8337279,-5.10068111,Timon,,Caxias,Leste Maranhense,2112209
MA,Trizidela do Vale,,-44.6106852,-4.570126857,Trizidela do Vale,,Mdio Mearim,Centro Maranhense,2112233
MA,Tufilndia,,-45.63391648,-3.676404118,Tufilandia,,Pindar,Oeste Maranhense,2112274
MA,Tuntum,,-44.64901215,-5.24965554,Tuntum,,Alto Mearim e Graja,Centro Maranhense,2112308
MA,Turiau,,-45.36915242,-1.669022048,Turiacu,,Gurupi,Oeste Maranhense,2112407
MA,Turilndia,,-45.30676531,-2.228833525,Turilandia,,Gurupi,Oeste Maranhense,2112456
MA,Tutia,,-42.27684721,-2.763550197,Tutoia,,Lenis Maranhenses,Norte Maranhense,2112506
MA,Urbano Santos,,-43.40424847,-3.2084095,Urbano Santos,,Chapadinha,Leste Maranhense,2112605
MA,Vargem Grande,,-43.91666449,-3.541896,Vargem Grande,,Itapecuru Mirim,Norte Maranhense,2112704
MA,Viana,,-45.0013067,-3.214562513,Viana,,Baixada Maranhense,Norte Maranhense,2112803
MA,Vila Nova dos Martrios,,-48.13892648,-5.183511519,Vila Nova dos Martirios,,Imperatriz,Oeste Maranhense,2112852
MA,Vitria do Mearim,,-44.86957224,-3.482047365,Vitoria do Mearim,,Baixada Maranhense,Norte Maranhense,2112902
MA,Vitorino Freire,,-45.24418514,-4.2911865,Vitorino Freire,,Pindar,Oeste Maranhense,2113009
MA,Z Doca,,-45.65769786,-3.2754805,Ze Doca,,Pindar,Oeste Maranhense,2114007
PI,Acau,,-41.08363782,-8.220786663,Acaua,,Alto Mdio Canind,Sudeste Piauiense,2200053
PI,Agricolndia,,-42.6591832,-5.795501935,Agricolandia,,Mdio Parnaba Piauiense,Centro-Norte Piauiense,2200103
PI,gua Branca,,-42.63513086,-5.893266338,Agua Branca,,Mdio Parnaba Piauiense,Centro-Norte Piauiense,2200202
PI,Alagoinha do Piau,,-40.93463482,-7.00817528,Alagoinha do Piaui,,Pio Ix,Sudeste Piauiense,2200251
PI,Alegrete do Piau,,-40.85786299,-7.245349466,Alegrete do Piaui,,Pio Ix,Sudeste Piauiense,2200277
PI,Alto Long,,-42.21032196,-5.250993011,Alto Longa,,Campo Maior,Centro-Norte Piauiense,2200301
PI,Altos,,-42.46094804,-5.036546434,Altos,,Teresina,Centro-Norte Piauiense,2200400
PI,Alvorada do Gurguia,,-43.86307158,-8.443959072,Alvorada do Gurgueia,,Alto Mdio Gurguia,Sudoeste Piauiense,2200459
PI,Amarante,,-42.85369282,-6.246610772,Amarante,,Mdio Parnaba Piauiense,Centro-Norte Piauiense,2200509
PI,Angical do Piau,,-42.74386575,-6.087241692,Angical do Piaui,,Mdio Parnaba Piauiense,Centro-Norte Piauiense,2200608
PI,Ansio de Abreu,,-43.03485333,-9.174918531,Anisio de Abreu,,So Raimundo Nonato,Sudoeste Piauiense,2200707
PI,Antnio Almeida,,-44.19653532,-7.219355834,Antonio Almeida,,Bertolnia,Sudoeste Piauiense,2200806
PI,Aroazes,,-41.79745334,-6.112850256,Aroazes,,Valena do Piau,Centro-Norte Piauiense,2200905
PI,Aroeiras do Itaim,,-41.56320442,-7.278745465,Aroeiras do Itaim,,Picos,Sudeste Piauiense,2200954
PI,Arraial,,-42.53656662,-6.650827028,Arraial,,Mdio Parnaba Piauiense,Centro-Norte Piauiense,2201002
PI,Assuno do Piau,,-41.05083,-5.864914495,Assuncao do Piaui,,Campo Maior,Centro-Norte Piauiense,2201051
PI,Avelino Lopes,,-43.94151014,-10.13474501,Avelino Lopes,,Chapadas do Extremo Sul Piauiense,Sudoeste Piauiense,2201101
PI,Baixa Grande do Ribeiro,,-45.21281529,-7.853351959,Baixa Grande do Ribeiro,,Alto Parnaba Piauiense,Sudoeste Piauiense,2201150
PI,Barra D'Alcntara,,-42.10500208,-6.518873072,Barra D'Alcantara,,Valena do Piau,Centro-Norte Piauiense,2201176
PI,Barras,,-42.29533986,-4.243093354,Barras,,Baixo Parnaba Piauiense,Norte Piauiense,2201200
PI,Barreiras do Piau,,-45.47778771,-9.921246827,Barreiras do Piaui,,Alto Mdio Gurguia,Sudoeste Piauiense,2201309
PI,Barro Duro,,-42.51337782,-5.812359708,Barro Duro,,Mdio Parnaba Piauiense,Centro-Norte Piauiense,2201408
PI,Batalha,,-42.07521873,-4.020412336,Batalha,,Baixo Parnaba Piauiense,Norte Piauiense,2201507
PI,Bela Vista do Piau,,-41.87137964,-7.97218532,Bela Vista do Piaui,,Alto Mdio Canind,Sudeste Piauiense,2201556
PI,Belm do Piau,,-40.97030219,-7.370139616,Belem do Piaui,,Alto Mdio Canind,Sudeste Piauiense,2201572
PI,Beneditinos,,-42.3706167,-5.44760286,Beneditinos,,Teresina,Centro-Norte Piauiense,2201606
PI,Bertolnia,,-43.95438774,-7.628624763,Bertolinia,,Bertolnia,Sudoeste Piauiense,2201705
PI,Betnia do Piau,,-40.79662193,-8.145665577,Betania do Piaui,,Alto Mdio Canind,Sudeste Piauiense,2201739
PI,Boa Hora,,-42.12529574,-4.409009606,Boa Hora,,Baixo Parnaba Piauiense,Norte Piauiense,2201770
PI,Bocaina,,-41.32234068,-6.954842333,Bocaina,,Picos,Sudeste Piauiense,2201804
PI,Bom Jesus,,-44.36052508,-9.070948984,Bom Jesus,,Alto Mdio Gurguia,Sudoeste Piauiense,2201903
PI,Bom Princpio do Piau,,-41.64520957,-3.189858688,Bom Principio do Piaui,,Litoral Piauiense,Norte Piauiense,2201919
PI,Bonfim do Piau,,-42.87966307,-9.166560539,Bonfim do Piaui,,So Raimundo Nonato,Sudoeste Piauiense,2201929
PI,Boqueiro do Piau,,-42.10362713,-4.485819632,Boqueirao do Piaui,,Campo Maior,Centro-Norte Piauiense,2201945
PI,Brasileira,,-41.78925964,-4.137829108,Brasileira,,Baixo Parnaba Piauiense,Norte Piauiense,2201960
PI,Brejo do Piau,,-42.83030181,-8.207064766,Brejo do Piaui,,So Raimundo Nonato,Sudoeste Piauiense,2201988
PI,Buriti dos Lopes,,-41.86990885,-3.172721335,Buriti dos Lopes,,Litoral Piauiense,Norte Piauiense,2202000
PI,Buriti dos Montes,,-41.10185139,-5.312066783,Buriti dos Montes,,Campo Maior,Centro-Norte Piauiense,2202026
PI,Cabeceiras do Piau,,-42.30831607,-4.471331294,Cabeceiras do Piaui,,Baixo Parnaba Piauiense,Norte Piauiense,2202059
PI,Cajazeiras do Piau,,-42.39672729,-6.794184118,Cajazeiras do Piaui,,Picos,Sudeste Piauiense,2202075
PI,Cajueiro da Praia,,-41.34715036,-2.929227172,Cajueiro da Praia,,Litoral Piauiense,Norte Piauiense,2202083
PI,Caldeiro Grande do Piau,,-40.63741891,-7.331559652,Caldeirao Grande do Piaui,,Alto Mdio Canind,Sudeste Piauiense,2202091
PI,Campinas do Piau,,-41.88074529,-7.654778128,Campinas do Piaui,,Alto Mdio Canind,Sudeste Piauiense,2202109
PI,Campo Alegre do Fidalgo,,-41.83201332,-8.374480381,Campo Alegre do Fidalgo,,Alto Mdio Canind,Sudeste Piauiense,2202117
PI,Campo Grande do Piau,,-41.03120096,-7.13599312,Campo Grande do Piaui,,Alto Mdio Canind,Sudeste Piauiense,2202133
PI,Campo Largo do Piau,,-42.62604104,-3.807868939,Campo Largo do Piaui,,Baixo Parnaba Piauiense,Norte Piauiense,2202174
PI,Campo Maior,,-42.1667446,-4.829113927,Campo Maior,,Campo Maior,Centro-Norte Piauiense,2202208
PI,Canavieira,,-43.71942803,-7.69462156,Canavieira,,Floriano,Sudoeste Piauiense,2202251
PI,Canto do Buriti,,-42.94402102,-8.10823192,Canto do Buriti,,So Raimundo Nonato,Sudoeste Piauiense,2202307
PI,Capito de Campos,,-41.94352197,-4.458559268,Capitao de Campos,,Campo Maior,Centro-Norte Piauiense,2202406
PI,Capito Gervsio Oliveira,,-41.81611631,-8.496837868,Capitao Gervasio Oliveira,,Alto Mdio Canind,Sudeste Piauiense,2202455
PI,Caracol,,-43.33420045,-9.276765267,Caracol,,So Raimundo Nonato,Sudoeste Piauiense,2202505
PI,Carabas do Piau,,-41.84120813,-3.478590538,Caraubas do Piaui,,Litoral Piauiense,Norte Piauiense,2202539
PI,Caridade do Piau,,-40.99033455,-7.728652388,Caridade do Piaui,,Alto Mdio Canind,Sudeste Piauiense,2202554
PI,Castelo do Piau,,-41.54731624,-5.321543871,Castelo do Piaui,,Campo Maior,Centro-Norte Piauiense,2202604
PI,Caxing,,-41.88268376,-3.426938403,Caxingo,,Litoral Piauiense,Norte Piauiense,2202653
PI,Cocal,,-41.55684483,-3.47045349,Cocal,,Litoral Piauiense,Norte Piauiense,2202703
PI,Cocal de Telha,,-41.97904787,-4.553815724,Cocal de Telha,,Campo Maior,Centro-Norte Piauiense,2202711
PI,Cocal dos Alves,,-41.45541891,-3.606072591,Cocal dos Alves,,Litoral Piauiense,Norte Piauiense,2202729
PI,Coivaras,,-42.20731591,-5.091308351,Coivaras,,Teresina,Centro-Norte Piauiense,2202737
PI,Colnia do Gurguia,,-43.79601716,-8.187574216,Colonia do Gurgueia,,Bertolnia,Sudoeste Piauiense,2202752
PI,Colnia do Piau,,-42.17711851,-7.223657564,Colonia do Piaui,,Picos,Sudeste Piauiense,2202778
PI,Conceio do Canind,,-41.59663394,-7.882704154,Conceicao do Caninde,,Alto Mdio Canind,Sudeste Piauiense,2202802
PI,Coronel Jos Dias,,-42.4703571,-8.816369412,Coronel Jose Dias,,So Raimundo Nonato,Sudoeste Piauiense,2202851
PI,Corrente,,-45.16331252,-10.44093604,Corrente,,Chapadas do Extremo Sul Piauiense,Sudoeste Piauiense,2202901
PI,Cristalndia do Piau,,-45.1860307,-10.64780375,Cristalandia do Piaui,,Chapadas do Extremo Sul Piauiense,Sudoeste Piauiense,2203008
PI,Cristino Castro,,-44.22441475,-8.820186289,Cristino Castro,,Alto Mdio Gurguia,Sudoeste Piauiense,2203107
PI,Curimat,,-44.30072223,-10.03129243,Curimata,,Chapadas do Extremo Sul Piauiense,Sudoeste Piauiense,2203206
PI,Currais,,-44.40300215,-9.012433839,Currais,,Alto Mdio Gurguia,Sudoeste Piauiense,2203230
PI,Curralinhos,,-42.83221052,-5.620453229,Curralinhos,,Teresina,Centro-Norte Piauiense,2203255
PI,Curral Novo do Piau,,-40.90106947,-7.830797188,Curral Novo do Piaui,,Alto Mdio Canind,Sudeste Piauiense,2203271
PI,Demerval Lobo,,-42.67422861,-5.358465466,Demerval Lobao,,Teresina,Centro-Norte Piauiense,2203305
PI,Dirceu Arcoverde,,-42.43956996,-9.335200044,Dirceu Arcoverde,,So Raimundo Nonato,Sudoeste Piauiense,2203354
PI,Dom Expedito Lopes,,-41.65238521,-6.957901843,Dom Expedito Lopes,,Picos,Sudeste Piauiense,2203404
PI,Domingos Mouro,,-41.27188145,-4.253433635,Domingos Mourao,,Campo Maior,Centro-Norte Piauiense,2203420
PI,Dom Inocncio,,-41.97685112,-9.008074943,Dom Inocencio,,So Raimundo Nonato,Sudoeste Piauiense,2203453
PI,Elesbo Veloso,,-42.13814445,-6.201719461,Elesbao Veloso,,Valena do Piau,Centro-Norte Piauiense,2203503
PI,Eliseu Martins,,-43.66481113,-8.09646229,Eliseu Martins,,Bertolnia,Sudoeste Piauiense,2203602
PI,Esperantina,,-42.23536453,-3.895604531,Esperantina,,Baixo Parnaba Piauiense,Norte Piauiense,2203701
PI,Fartura do Piau,,-42.7944014,-9.478606286,Fartura do Piaui,,So Raimundo Nonato,Sudoeste Piauiense,2203750
PI,Flores do Piau,,-42.9243058,-7.791775602,Flores do Piaui,,Floriano,Sudoeste Piauiense,2203800
PI,Floresta do Piau,,-41.80031429,-7.466795375,Floresta do Piaui,,Alto Mdio Canind,Sudeste Piauiense,2203859
PI,Floriano,,-43.02064474,-6.769672434,Floriano,,Floriano,Sudoeste Piauiense,2203909
PI,Francinpolis,,-42.2633661,-6.395292623,Francinopolis,,Valena do Piau,Centro-Norte Piauiense,2204006
PI,Francisco Ayres,,-42.69112784,-6.623343532,Francisco Ayres,,Mdio Parnaba Piauiense,Centro-Norte Piauiense,2204105
PI,Francisco Macedo,,-40.79556735,-7.327871041,Francisco Macedo,,Alto Mdio Canind,Sudeste Piauiense,2204154
PI,Francisco Santos,,-41.13615734,-6.994171138,Francisco Santos,,Pio Ix,Sudeste Piauiense,2204204
PI,Fronteiras,,-40.61723293,-7.088412533,Fronteiras,,Alto Mdio Canind,Sudeste Piauiense,2204303
PI,Geminiano,,-41.35757976,-7.158417626,Geminiano,,Picos,Sudeste Piauiense,2204352
PI,Gilbus,,-45.34691998,-9.834569906,Gilbues,,Alto Mdio Gurguia,Sudoeste Piauiense,2204402
PI,Guadalupe,,-43.56692365,-6.785246909,Guadalupe,,Floriano,Sudoeste Piauiense,2204501
PI,Guaribas,,-43.68772103,-9.395111304,Guaribas,,So Raimundo Nonato,Sudoeste Piauiense,2204550
PI,Hugo Napoleo,,-42.56256305,-5.987787891,Hugo Napoleao,,Mdio Parnaba Piauiense,Centro-Norte Piauiense,2204600
PI,Ilha Grande,,-41.81977318,-2.854008607,Ilha Grande,,Litoral Piauiense,Norte Piauiense,2204659
PI,Inhuma,,-41.71019406,-6.667120341,Inhuma,,Valena do Piau,Centro-Norte Piauiense,2204709
PI,Ipiranga do Piau,,-41.73991413,-6.826932678,Ipiranga do Piaui,,Picos,Sudeste Piauiense,2204808
PI,Isaas Coelho,,-41.67944808,-7.734310697,Isaias Coelho,,Alto Mdio Canind,Sudeste Piauiense,2204907
PI,Itainpolis,,-41.48002531,-7.451280813,Itainopolis,,Alto Mdio Canind,Sudeste Piauiense,2205003
PI,Itaueira,,-43.02549651,-7.608116633,Itaueira,,Floriano,Sudoeste Piauiense,2205102
PI,Jacobina do Piau,,-41.21076205,-7.936264488,Jacobina do Piaui,,Alto Mdio Canind,Sudeste Piauiense,2205151
PI,Jaics,,-41.14647481,-7.353152327,Jaicos,,Alto Mdio Canind,Sudeste Piauiense,2205201
PI,Jardim do Mulato,,-42.63395956,-6.096577595,Jardim do Mulato,,Mdio Parnaba Piauiense,Centro-Norte Piauiense,2205250
PI,Jatob do Piau,,-41.81982222,-4.773158944,Jatoba do Piaui,,Campo Maior,Centro-Norte Piauiense,2205276
PI,Jerumenha,,-43.50274301,-7.084632194,Jerumenha,,Floriano,Sudoeste Piauiense,2205300
PI,Joo Costa,,-42.41784858,-8.489125722,Joao Costa,,Alto Mdio Canind,Sudeste Piauiense,2205359
PI,Joaquim Pires,,-42.1876898,-3.513103548,Joaquim Pires,,Baixo Parnaba Piauiense,Norte Piauiense,2205409
PI,Joca Marques,,-42.42773708,-3.488033826,Joca Marques,,Baixo Parnaba Piauiense,Norte Piauiense,2205458
PI,Jos de Freitas,,-42.57837453,-4.76305064,Jose de Freitas,,Teresina,Centro-Norte Piauiense,2205508
PI,Juazeiro do Piau,,-41.70260076,-5.161372754,Juazeiro do Piaui,,Campo Maior,Centro-Norte Piauiense,2205516
PI,Jlio Borges,,-44.24370063,-10.32678681,Julio Borges,,Chapadas do Extremo Sul Piauiense,Sudoeste Piauiense,2205524
PI,Jurema,,-43.13310974,-9.222024721,Jurema,,So Raimundo Nonato,Sudoeste Piauiense,2205532
PI,Lagoinha do Piau,,-42.62738373,-5.836583441,Lagoinha do Piaui,,Mdio Parnaba Piauiense,Centro-Norte Piauiense,2205540
PI,Lagoa Alegre,,-42.61674254,-4.508729749,Lagoa Alegre,,Teresina,Centro-Norte Piauiense,2205557
PI,Lagoa do Barro do Piau,,-41.53027541,-8.482437115,Lagoa do Barro do Piaui,,Alto Mdio Canind,Sudeste Piauiense,2205565
PI,Lagoa de So Francisco,,-41.60546869,-4.392746387,Lagoa de Sao Francisco,,Campo Maior,Centro-Norte Piauiense,2205573
PI,Lagoa do Piau,,-42.64901321,-5.41214417,Lagoa do Piaui,,Teresina,Centro-Norte Piauiense,2205581
PI,Lagoa do Stio,,-41.5823863,-6.51534763,Lagoa do Sitio,,Valena do Piau,Centro-Norte Piauiense,2205599
PI,Landri Sales,,-43.93104552,-7.266599975,Landri Sales,,Bertolnia,Sudoeste Piauiense,2205607
PI,Lus Correia,,-41.66456723,-2.881566536,Luis Correia,,Litoral Piauiense,Norte Piauiense,2205706
PI,Luzilndia,,-42.37163752,-3.460817635,Luzilandia,,Baixo Parnaba Piauiense,Norte Piauiense,2205805
PI,Madeiro,,-42.50514125,-3.484212005,Madeiro,,Baixo Parnaba Piauiense,Norte Piauiense,2205854
PI,Manoel Emdio,,-43.87547467,-8.011358674,Manoel Emidio,,Bertolnia,Sudoeste Piauiense,2205904
PI,Marcolndia,,-40.66285429,-7.443556661,Marcolandia,,Alto Mdio Canind,Sudeste Piauiense,2205953
PI,Marcos Parente,,-43.88831401,-7.119295378,Marcos Parente,,Bertolnia,Sudoeste Piauiense,2206001
PI,Massap do Piau,,-41.12385468,-7.465482685,Massape do Piaui,,Alto Mdio Canind,Sudeste Piauiense,2206050
PI,Matias Olmpio,,-42.5586289,-3.711027283,Matias Olimpio,,Baixo Parnaba Piauiense,Norte Piauiense,2206100
PI,Miguel Alves,,-42.89316665,-4.168215582,Miguel Alves,,Baixo Parnaba Piauiense,Norte Piauiense,2206209
PI,Miguel Leo,,-42.73582953,-5.68224178,Miguel Leao,,Teresina,Centro-Norte Piauiense,2206308
PI,Milton Brando,,-41.44795954,-4.699953478,Milton Brandao,,Campo Maior,Centro-Norte Piauiense,2206357
PI,Monsenhor Gil,,-42.61739892,-5.551485631,Monsenhor Gil,,Teresina,Centro-Norte Piauiense,2206407
PI,Monsenhor Hiplito,,-41.0328934,-7.003502473,Monsenhor Hipolito,,Pio Ix,Sudeste Piauiense,2206506
PI,Monte Alegre do Piau,,-45.29574022,-9.755833668,Monte Alegre do Piaui,,Alto Mdio Gurguia,Sudoeste Piauiense,2206605
PI,Morro Cabea no Tempo,,-43.90187437,-9.719319492,Morro Cabeca no Tempo,,Chapadas do Extremo Sul Piauiense,Sudoeste Piauiense,2206654
PI,Morro do Chapu do Piau,,-42.3090634,-3.742255096,Morro do Chapeu do Piaui,,Baixo Parnaba Piauiense,Norte Piauiense,2206670
PI,Murici dos Portelas,,-42.09676908,-3.323859785,Murici dos Portelas,,Litoral Piauiense,Norte Piauiense,2206696
PI,Nazar do Piau,,-42.66822723,-6.967128491,Nazare do Piaui,,Floriano,Sudoeste Piauiense,2206704
PI,Nazria,,-42.81404847,-5.346925,Nazaria,,Teresina,Centro-Norte Piauiense,2206720
PI,Nossa Senhora de Nazar,,-42.17930308,-4.626932092,Nossa Senhora de Nazare,,Campo Maior,Centro-Norte Piauiense,2206753
PI,Nossa Senhora dos Remdios,,-42.62395105,-3.991225352,Nossa Senhora dos Remedios,,Baixo Parnaba Piauiense,Norte Piauiense,2206803
PI,Novo Oriente do Piau,,-41.92872231,-6.449405137,Novo Oriente do Piaui,,Valena do Piau,Centro-Norte Piauiense,2206902
PI,Novo Santo Antnio,,-41.9345075,-5.286057644,Novo Santo Antonio,,Campo Maior,Centro-Norte Piauiense,2206951
PI,Oeiras,,-42.13140566,-7.016418006,Oeiras,,Picos,Sudeste Piauiense,2207009
PI,Olho D'gua do Piau,,-42.57855161,-5.847158573,Olho D'Agua do Piaui,,Mdio Parnaba Piauiense,Centro-Norte Piauiense,2207108
PI,Padre Marcos,,-40.90586208,-7.354712116,Padre Marcos,,Alto Mdio Canind,Sudeste Piauiense,2207207
PI,Paes Landim,,-42.25695763,-7.775562915,Paes Landim,,Alto Mdio Canind,Sudeste Piauiense,2207306
PI,Paje do Piau,,-42.81693609,-7.852520092,Pajeu do Piaui,,So Raimundo Nonato,Sudoeste Piauiense,2207355
PI,Palmeira do Piau,,-44.23256858,-8.729501119,Palmeira do Piaui,,Alto Mdio Gurguia,Sudoeste Piauiense,2207405
PI,Palmeirais,,-43.06184352,-5.979796836,Palmeirais,,Mdio Parnaba Piauiense,Centro-Norte Piauiense,2207504
PI,Paquet,,-41.70138525,-7.101466244,Paqueta,,Picos,Sudeste Piauiense,2207553
PI,Parnagu,,-44.63431461,-10.21718097,Parnagua,,Chapadas do Extremo Sul Piauiense,Sudoeste Piauiense,2207603
PI,Parnaba,,-41.77817059,-2.903360145,Parnaiba,,Litoral Piauiense,Norte Piauiense,2207702
PI,Passagem Franca do Piau,,-42.44052675,-5.85624732,Passagem Franca do Piaui,,Mdio Parnaba Piauiense,Centro-Norte Piauiense,2207751
PI,Patos do Piau,,-41.2522814,-7.680763935,Patos do Piaui,,Alto Mdio Canind,Sudeste Piauiense,2207777
PI,Pau D'Arco do Piau,,-42.3888655,-5.251093429,Pau D'Arco do Piaui,,Teresina,Centro-Norte Piauiense,2207793
PI,Paulistana,,-41.14709649,-8.141436135,Paulistana,,Alto Mdio Canind,Sudeste Piauiense,2207801
PI,Pavussu,,-43.2217523,-7.964286955,Pavussu,,Floriano,Sudoeste Piauiense,2207850
PI,Pedro II,,-41.45855993,-4.427055265,Pedro II,,Campo Maior,Centro-Norte Piauiense,2207900
PI,Pedro Laurentino,,-42.28607367,-8.066882594,Pedro Laurentino,,Alto Mdio Canind,Sudeste Piauiense,2207934
PI,Nova Santa Rita,,-42.048262,-8.074964718,Nova Santa Rita,,Alto Mdio Canind,Sudeste Piauiense,2207959
PI,Picos,,-41.46882671,-7.081373912,Picos,,Picos,Sudeste Piauiense,2208007
PI,Pimenteiras,,-41.41515861,-6.24168841,Pimenteiras,,Valena do Piau,Centro-Norte Piauiense,2208106
PI,Pio IX,,-40.61827279,-6.832687301,Pio IX,,Pio Ix,Sudeste Piauiense,2208205
PI,Piracuruca,,-41.70904155,-3.929287494,Piracuruca,,Litoral Piauiense,Norte Piauiense,2208304
PI,Piripiri,,-41.77850485,-4.276068693,Piripiri,,Baixo Parnaba Piauiense,Norte Piauiense,2208403
PI,Porto,,-42.710926,-3.891422995,Porto,,Baixo Parnaba Piauiense,Norte Piauiense,2208502
PI,Porto Alegre do Piau,,-44.1948371,-6.971724687,Porto Alegre do Piaui,,Bertolnia,Sudoeste Piauiense,2208551
PI,Prata do Piau,,-42.20422368,-5.664797694,Prata do Piaui,,Valena do Piau,Centro-Norte Piauiense,2208601
PI,Queimada Nova,,-41.41702492,-8.585425347,Queimada Nova,,Alto Mdio Canind,Sudeste Piauiense,2208650
PI,Redeno do Gurguia,,-44.58121416,-9.493448241,Redencao do Gurgueia,,Alto Mdio Gurguia,Sudoeste Piauiense,2208700
PI,Regenerao,,-42.68502423,-6.240183021,Regeneracao,,Mdio Parnaba Piauiense,Centro-Norte Piauiense,2208809
PI,Riacho Frio,,-44.95253005,-10.12872769,Riacho Frio,,Chapadas do Extremo Sul Piauiense,Sudoeste Piauiense,2208858
PI,Ribeira do Piau,,-42.71404349,-7.690575501,Ribeira do Piaui,,Alto Mdio Canind,Sudeste Piauiense,2208874
PI,Ribeiro Gonalves,,-45.24563868,-7.558034245,Ribeiro Goncalves,,Alto Parnaba Piauiense,Sudoeste Piauiense,2208908
PI,Rio Grande do Piau,,-43.14018279,-7.77085712,Rio Grande do Piaui,,Floriano,Sudoeste Piauiense,2209005
PI,Santa Cruz do Piau,,-41.76192569,-7.177626496,Santa Cruz do Piaui,,Picos,Sudeste Piauiense,2209104
PI,Santa Cruz dos Milagres,,-41.95844595,-5.808120998,Santa Cruz dos Milagres,,Valena do Piau,Centro-Norte Piauiense,2209153
PI,Santa Filomena,,-45.92055644,-9.106795705,Santa Filomena,,Alto Parnaba Piauiense,Sudoeste Piauiense,2209203
PI,Santa Luz,,-44.12958591,-8.944624217,Santa Luz,,Alto Mdio Gurguia,Sudoeste Piauiense,2209302
PI,Santana do Piau,,-41.51848056,-6.949071764,Santana do Piaui,,Picos,Sudeste Piauiense,2209351
PI,Santa Rosa do Piau,,-42.28081388,-6.801455058,Santa Rosa do Piaui,,Picos,Sudeste Piauiense,2209377
PI,Santo Antnio de Lisboa,,-41.23376474,-6.981848477,Santo Antonio de Lisboa,,Pio Ix,Sudeste Piauiense,2209401
PI,Santo Antnio dos Milagres,,-42.71119681,-6.046717596,Santo Antonio dos Milagres,,Mdio Parnaba Piauiense,Centro-Norte Piauiense,2209450
PI,Santo Incio do Piau,,-41.91821286,-7.422336837,Santo Inacio do Piaui,,Alto Mdio Canind,Sudeste Piauiense,2209500
PI,So Braz do Piau,,-42.99907252,-9.062560536,Sao Braz do Piaui,,So Raimundo Nonato,Sudoeste Piauiense,2209559
PI,So Flix do Piau,,-42.11350259,-5.932867663,Sao Felix do Piaui,,Valena do Piau,Centro-Norte Piauiense,2209609
PI,So Francisco de Assis do Piau,,-41.68959715,-8.23775475,Sao Francisco de Assis do Piaui,,Alto Mdio Canind,Sudeste Piauiense,2209658
PI,So Francisco do Piau,,-42.53853199,-7.243976104,Sao Francisco do Piaui,,Floriano,Sudoeste Piauiense,2209708
PI,So Gonalo do Gurguia,,-45.30140551,-10.02994011,Sao Goncalo do Gurgueia,,Alto Mdio Gurguia,Sudoeste Piauiense,2209757
PI,So Gonalo do Piau,,-42.69883098,-5.98966744,Sao Goncalo do Piaui,,Mdio Parnaba Piauiense,Centro-Norte Piauiense,2209807
PI,So Joo da Canabrava,,-41.34605365,-6.81893099,Sao Joao da Canabrava,,Picos,Sudeste Piauiense,2209856
PI,So Joo da Fronteira,,-41.25628696,-3.938597434,Sao Joao da Fronteira,,Litoral Piauiense,Norte Piauiense,2209872
PI,So Joo da Serra,,-41.89926375,-5.508797538,Sao Joao da Serra,,Campo Maior,Centro-Norte Piauiense,2209906
PI,So Joo da Varjota,,-41.8637422,-6.919017839,Sao Joao da Varjota,,Picos,Sudeste Piauiense,2209955
PI,So Joo do Arraial,,-42.45312617,-3.813168874,Sao Joao do Arraial,,Baixo Parnaba Piauiense,Norte Piauiense,2209971
PI,So Joo do Piau,,-42.25643753,-8.348849688,Sao Joao do Piaui,,Alto Mdio Canind,Sudeste Piauiense,2210003
PI,So Jos do Divino,,-41.83010877,-3.805716357,Sao Jose do Divino,,Litoral Piauiense,Norte Piauiense,2210052
PI,So Jos do Peixe,,-42.57017942,-7.493008781,Sao Jose do Peixe,,Floriano,Sudoeste Piauiense,2210102
PI,So Jos do Piau,,-41.47940723,-6.870626245,Sao Jose do Piaui,,Picos,Sudeste Piauiense,2210201
PI,So Julio,,-40.83691324,-7.085315005,Sao Juliao,,Pio Ix,Sudeste Piauiense,2210300
PI,So Loureno do Piau,,-42.54435199,-9.172001877,Sao Lourenco do Piaui,,So Raimundo Nonato,Sudoeste Piauiense,2210359
PI,So Luis do Piau,,-41.32283782,-6.82814383,Sao Luis do Piaui,,Picos,Sudeste Piauiense,2210375
PI,So Miguel da Baixa Grande,,-42.18537737,-5.862298634,Sao Miguel da Baixa Grande,,Valena do Piau,Centro-Norte Piauiense,2210383
PI,So Miguel do Fidalgo,,-42.37052904,-7.584969119,Sao Miguel do Fidalgo,,Floriano,Sudoeste Piauiense,2210391
PI,So Miguel do Tapuio,,-41.31979849,-5.500663699,Sao Miguel do Tapuio,,Campo Maior,Centro-Norte Piauiense,2210409
PI,So Pedro do Piau,,-42.72366017,-5.913951647,Sao Pedro do Piaui,,Mdio Parnaba Piauiense,Centro-Norte Piauiense,2210508
PI,So Raimundo Nonato,,-42.69228516,-9.015360482,Sao Raimundo Nonato,,So Raimundo Nonato,Sudoeste Piauiense,2210607
PI,Sebastio Barros,,-44.83328418,-10.81667522,Sebastiao Barros,,Chapadas do Extremo Sul Piauiense,Sudoeste Piauiense,2210623
PI,Sebastio Leal,,-44.06769177,-7.57738563,Sebastiao Leal,,Bertolnia,Sudoeste Piauiense,2210631
PI,Sigefredo Pacheco,,-41.72755922,-4.911689164,Sigefredo Pacheco,,Campo Maior,Centro-Norte Piauiense,2210656
PI,Simes,,-40.81750907,-7.599137166,Simoes,,Alto Mdio Canind,Sudeste Piauiense,2210706
PI,Simplcio Mendes,,-41.91091036,-7.857957294,Simplicio Mendes,,Alto Mdio Canind,Sudeste Piauiense,2210805
PI,Socorro do Piau,,-42.50469172,-7.864938057,Socorro do Piaui,,Alto Mdio Canind,Sudeste Piauiense,2210904
PI,Sussuapara,,-41.39226773,-7.017010589,Sussuapara,,Picos,Sudeste Piauiense,2210938
PI,Tamboril do Piau,,-42.90968883,-8.40043178,Tamboril do Piaui,,So Raimundo Nonato,Sudoeste Piauiense,2210953
PI,Tanque do Piau,,-42.28390134,-6.596353467,Tanque do Piaui,,Picos,Sudeste Piauiense,2210979
PI,Teresina,TRUE,-42.80527046,-5.086341952,Teresina,,Teresina,Centro-Norte Piauiense,2211001
PI,Unio,,-42.86292972,-4.586018159,Uniao,,Teresina,Centro-Norte Piauiense,2211100
PI,Uruu,,-44.56025592,-7.229503345,Urucui,,Alto Parnaba Piauiense,Sudoeste Piauiense,2211209
PI,Valena do Piau,,-41.74053599,-6.398196023,Valenca do Piaui,,Valena do Piau,Centro-Norte Piauiense,2211308
PI,Vrzea Branca,,-42.96944454,-9.236541089,Varzea Branca,,So Raimundo Nonato,Sudoeste Piauiense,2211357
PI,Vrzea Grande,,-42.25310162,-6.542947554,Varzea Grande,,Valena do Piau,Centro-Norte Piauiense,2211407
PI,Vera Mendes,,-41.47973675,-7.602849283,Vera Mendes,,Alto Mdio Canind,Sudeste Piauiense,2211506
PI,Vila Nova do Piau,,-40.9378014,-7.141046434,Vila Nova do Piaui,,Alto Mdio Canind,Sudeste Piauiense,2211605
PI,Wall Ferraz,,-41.90895362,-7.235779006,Wall Ferraz,,Picos,Sudeste Piauiense,2211704
CE,Abaiara,,-39.04754664,-7.356976596,Abaiara,,Brejo Santo,Sul Cearense,2300101
CE,Acarape,,-38.70562377,-4.223138409,Acarape,,Baturit,Norte Cearense,2300150
CE,Acara,,-40.11824147,-2.88531054,Acarau,,Litoral de Camocim e Acara,Noroeste Cearense,2300200
CE,Acopiara,,-39.45570528,-6.092761995,Acopiara,,Serto de Senador Pompeu,Sertes Cearenses,2300309
CE,Aiuaba,,-40.12316008,-6.56329844,Aiuaba,,Serto de Inhamuns,Sertes Cearenses,2300408
CE,Alcntaras,,-40.54463812,-3.586983769,Alcantaras,,Meruoca,Noroeste Cearense,2300507
CE,Altaneira,,-39.74582064,-6.997498351,Altaneira,,Caririau,Sul Cearense,2300606
CE,Alto Santo,,-38.27277815,-5.52208174,Alto Santo,,Baixo Jaguaribe,Jaguaribe,2300705
CE,Amontada,,-39.82882279,-3.364877804,Amontada,,Itapipoca,Norte Cearense,2300754
CE,Antonina do Norte,,-39.98238684,-6.779687847,Antonina do Norte,,Vrzea Alegre,Centro-Sul Cearense,2300804
CE,Apuiars,,-39.43042278,-3.948018519,Apuiares,,Mdio Curu,Norte Cearense,2300903
CE,Aquiraz,,-38.38980296,-3.9061945,Aquiraz,,Fortaleza,Metropolitana de Fortaleza,2301000
CE,Aracati,,-37.7727526,-4.56706647,Aracati,,Litoral de Aracati,Jaguaribe,2301109
CE,Aracoiaba,,-38.80944097,-4.370393807,Aracoiaba,,Baturit,Norte Cearense,2301208
CE,Ararend,,-40.83109674,-4.751938272,Ararenda,,Serto de Cratus,Sertes Cearenses,2301257
CE,Araripe,,-40.13744581,-7.206183789,Araripe,,Chapada do Araripe,Sul Cearense,2301307
CE,Aratuba,,-39.04755456,-4.416930645,Aratuba,,Baturit,Norte Cearense,2301406
CE,Arneiroz,,-40.16144371,-6.319425803,Arneiroz,,Serto de Inhamuns,Sertes Cearenses,2301505
CE,Assar,,-39.87127475,-6.872607112,Assare,,Chapada do Araripe,Sul Cearense,2301604
CE,Aurora,,-38.97699088,-6.940391832,Aurora,,Barro,Sul Cearense,2301703
CE,Baixio,,-38.72012592,-6.727162049,Baixio,,Lavras da Mangabeira,Centro-Sul Cearense,2301802
CE,Banabui,,-38.9257848,-5.315047304,Banabuiu,,Serto de Quixeramobim,Sertes Cearenses,2301851
CE,Barbalha,,-39.30231637,-7.307172127,Barbalha,,Cariri,Sul Cearense,2301901
CE,Barreira,,-38.63850183,-4.288762267,Barreira,,Chorozinho,Norte Cearense,2301950
CE,Barro,,-38.77988065,-7.168208727,Barro,,Barro,Sul Cearense,2302008
CE,Barroquinha,,-41.13948154,-3.009116746,Barroquinha,,Litoral de Camocim e Acara,Noroeste Cearense,2302057
CE,Baturit,,-38.88002138,-4.331205156,Baturite,,Baturit,Norte Cearense,2302107
CE,Beberibe,,-38.12327304,-4.174763221,Beberibe,,Cascavel,Norte Cearense,2302206
CE,Bela Cruz,,-40.16684291,-3.055106724,Bela Cruz,,Litoral de Camocim e Acara,Noroeste Cearense,2302305
CE,Boa Viagem,,-39.73328234,-5.12574387,Boa Viagem,,Serto de Quixeramobim,Sertes Cearenses,2302404
CE,Brejo Santo,,-38.98551387,-7.491638009,Brejo Santo,,Brejo Santo,Sul Cearense,2302503
CE,Camocim,,-40.84752774,-2.900966575,Camocim,,Litoral de Camocim e Acara,Noroeste Cearense,2302602
CE,Campos Sales,,-40.37900313,-7.0733835,Campos Sales,,Chapada do Araripe,Sul Cearense,2302701
CE,Canind,,-39.31034295,-4.35534429,Caninde,,Canind,Norte Cearense,2302800
CE,Capistrano,,-38.90182876,-4.459896612,Capistrano,,Baturit,Norte Cearense,2302909
CE,Caridade,,-39.19303292,-4.224960001,Caridade,,Canind,Norte Cearense,2303006
CE,Carir,,-40.47384481,-3.95161188,Carire,,Sobral,Noroeste Cearense,2303105
CE,Caririau,,-39.28437203,-7.041528,Caririacu,,Caririau,Sul Cearense,2303204
CE,Caris,,-39.49768868,-6.531127938,Carius,,Vrzea Alegre,Centro-Sul Cearense,2303303
CE,Carnaubal,,-40.93563158,-4.163988562,Carnaubal,,Ibiapaba,Noroeste Cearense,2303402
CE,Cascavel,,-38.23968594,-4.131433678,Cascavel,,Cascavel,Norte Cearense,2303501
CE,Catarina,,-39.87946623,-6.127556291,Catarina,,Serto de Inhamuns,Sertes Cearenses,2303600
CE,Catunda,,-40.20580379,-4.651549386,Catunda,,Santa Quitria,Noroeste Cearense,2303659
CE,Caucaia,,-38.66401754,-3.736487,Caucaia,,Fortaleza,Metropolitana de Fortaleza,2303709
CE,Cedro,,-39.05974315,-6.6049605,Cedro,,Iguatu,Centro-Sul Cearense,2303808
CE,Chaval,,-41.24459582,-3.038901189,Chaval,,Litoral de Camocim e Acara,Noroeste Cearense,2303907
CE,Chor,,-39.13746753,-4.842515659,Choro,,Serto de Quixeramobim,Sertes Cearenses,2303931
CE,Chorozinho,,-38.50128567,-4.302170914,Chorozinho,,Chorozinho,Norte Cearense,2303956
CE,Corea,,-40.65695108,-3.549487861,Coreau,,Corea,Noroeste Cearense,2304004
CE,Crates,,-40.66840013,-5.176950551,Crateus,,Serto de Cratus,Sertes Cearenses,2304103
CE,Crato,,-39.4083903,-7.23175279,Crato,,Cariri,Sul Cearense,2304202
CE,Croat,,-40.9090451,-4.414057266,Croata,,Ibiapaba,Noroeste Cearense,2304236
CE,Cruz,,-40.17127871,-2.91670805,Cruz,,Litoral de Camocim e Acara,Noroeste Cearense,2304251
CE,Deputado Irapuan Pinheiro,,-39.26154177,-5.908962374,Deputado Irapuan Pinheiro,,Serto de Senador Pompeu,Sertes Cearenses,2304269
CE,Erer,,-38.34725896,-6.03133273,Erere,,Serra do Pereiro,Jaguaribe,2304277
CE,Eusbio,,-38.44512184,-3.886972887,Eusebio,,Fortaleza,Metropolitana de Fortaleza,2304285
CE,Farias Brito,,-39.57083502,-6.927109981,Farias Brito,,Caririau,Sul Cearense,2304301
CE,Forquilha,,-40.258769,-3.798957743,Forquilha,,Sobral,Noroeste Cearense,2304350
CE,Fortaleza,TRUE,-38.58992756,-3.723805035,Fortaleza,,Fortaleza,Metropolitana de Fortaleza,2304400
CE,Fortim,,-37.79897549,-4.449804917,Fortim,,Litoral de Aracati,Jaguaribe,2304459
CE,Frecheirinha,,-40.8214052,-3.760611932,Frecheirinha,,Corea,Noroeste Cearense,2304509
CE,General Sampaio,,-39.45352995,-4.051041275,General Sampaio,,Mdio Curu,Norte Cearense,2304608
CE,Graa,,-40.7555249,-4.046938794,Graca,,Sobral,Noroeste Cearense,2304657
CE,Granja,,-40.82993899,-3.118952156,Granja,,Litoral de Camocim e Acara,Noroeste Cearense,2304707
CE,Granjeiro,,-39.22030889,-6.888884373,Granjeiro,,Caririau,Sul Cearense,2304806
CE,Groaras,,-40.38214602,-3.911954129,Groairas,,Sobral,Noroeste Cearense,2304905
CE,Guaiba,,-38.63443478,-4.040243501,Guaiuba,,Fortaleza,Metropolitana de Fortaleza,2304954
CE,Guaraciaba do Norte,,-40.75263318,-4.162451067,Guaraciaba do Norte,,Ibiapaba,Noroeste Cearense,2305001
CE,Guaramiranga,,-38.94063329,-4.262050919,Guaramiranga,,Baturit,Norte Cearense,2305100
CE,Hidrolndia,,-40.40181712,-4.407999444,Hidrolandia,,Santa Quitria,Noroeste Cearense,2305209
CE,Horizonte,,-38.49423956,-4.093278,Horizonte,,Pacajus,Metropolitana de Fortaleza,2305233
CE,Ibaretama,,-38.82167831,-4.818651578,Ibaretama,,Serto de Quixeramobim,Sertes Cearenses,2305266
CE,Ibiapina,,-40.89392902,-3.936131262,Ibiapina,,Ibiapaba,Noroeste Cearense,2305308
CE,Ibicuitinga,,-38.64086305,-4.969166423,Ibicuitinga,,Baixo Jaguaribe,Jaguaribe,2305332
CE,Icapu,,-37.3535631,-4.715549488,Icapui,,Litoral de Aracati,Jaguaribe,2305357
CE,Ic,,-38.86308518,-6.403031252,Ico,,Iguatu,Centro-Sul Cearense,2305407
CE,Iguatu,,-39.29990568,-6.36055472,Iguatu,,Iguatu,Centro-Sul Cearense,2305506
CE,Independncia,,-40.30934826,-5.3980281,Independencia,,Serto de Cratus,Sertes Cearenses,2305605
CE,Ipaporanga,,-40.75796634,-4.900629786,Ipaporanga,,Serto de Cratus,Sertes Cearenses,2305654
CE,Ipaumirim,,-38.71590374,-6.78836126,Ipaumirim,,Lavras da Mangabeira,Centro-Sul Cearense,2305704
CE,Ipu,,-40.71872614,-4.313431685,Ipu,,Ipu,Noroeste Cearense,2305803
CE,Ipueiras,,-40.71569651,-4.543785495,Ipueiras,,Ipu,Noroeste Cearense,2305902
CE,Iracema,,-38.30466166,-5.809842553,Iracema,,Serra do Pereiro,Jaguaribe,2306009
CE,Irauuba,,-39.79223812,-3.745418802,Iraucuba,,Sobral,Noroeste Cearense,2306108
CE,Itaiaba,,-37.82162951,-4.683404712,Itaicaba,,Litoral de Aracati,Jaguaribe,2306207
CE,Itaitinga,,-38.52640515,-3.970459016,Itaitinga,,Fortaleza,Metropolitana de Fortaleza,2306256
CE,Itapag,,-39.58353324,-3.68567311,Itapage,,Uruburetama,Norte Cearense,2306306
CE,Itapipoca,,-39.58348158,-3.4994355,Itapipoca,,Itapipoca,Norte Cearense,2306405
CE,Itapina,,-38.92067396,-4.554740175,Itapiuna,,Baturit,Norte Cearense,2306504
CE,Itarema,,-39.91567775,-2.923348,Itarema,,Litoral de Camocim e Acara,Noroeste Cearense,2306553
CE,Itatira,,-39.61790402,-4.528922562,Itatira,,Canind,Norte Cearense,2306603
CE,Jaguaretama,,-38.7625263,-5.610889563,Jaguaretama,,Mdio Jaguaribe,Jaguaribe,2306702
CE,Jaguaribara,,-38.4630973,-5.457502034,Jaguaribara,,Mdio Jaguaribe,Jaguaribe,2306801
CE,Jaguaribe,,-38.62300505,-5.886459045,Jaguaribe,,Mdio Jaguaribe,Jaguaribe,2306900
CE,Jaguaruana,,-37.78239148,-4.839555168,Jaguaruana,,Baixo Jaguaribe,Jaguaribe,2307007
CE,Jardim,,-39.28416446,-7.585536466,Jardim,,Cariri,Sul Cearense,2307106
CE,Jati,,-39.00513876,-7.692741595,Jati,,Brejo Santo,Sul Cearense,2307205
CE,Jijoca de Jericoacoara,,-40.4387354,-2.899682709,Jijoca de Jericoacoara,,Litoral de Camocim e Acara,Noroeste Cearense,2307254
CE,Juazeiro do Norte,,-39.31699336,-7.210766,Juazeiro do Norte,,Cariri,Sul Cearense,2307304
CE,Jucs,,-39.52677624,-6.522549273,Jucas,,Vrzea Alegre,Centro-Sul Cearense,2307403
CE,Lavras da Mangabeira,,-38.96727505,-6.754747977,Lavras da Mangabeira,,Lavras da Mangabeira,Centro-Sul Cearense,2307502
CE,Limoeiro do Norte,,-38.09909487,-5.15023902,Limoeiro do Norte,,Baixo Jaguaribe,Jaguaribe,2307601
CE,Madalena,,-39.57578868,-4.852434177,Madalena,,Serto de Quixeramobim,Sertes Cearenses,2307635
CE,Maracana,,-38.62441865,-3.876964451,Maracanau,,Fortaleza,Metropolitana de Fortaleza,2307650
CE,Maranguape,,-38.68585125,-3.89186946,Maranguape,,Fortaleza,Metropolitana de Fortaleza,2307700
CE,Marco,,-40.15164364,-3.120707025,Marco,,Litoral de Camocim e Acara,Noroeste Cearense,2307809
CE,Martinpole,,-40.69935518,-3.225012227,Martinopole,,Litoral de Camocim e Acara,Noroeste Cearense,2307908
CE,Massap,,-40.34213486,-3.523870584,Massape,,Sobral,Noroeste Cearense,2308005
CE,Mauriti,,-38.77279544,-7.387398,Mauriti,,Barro,Sul Cearense,2308104
CE,Meruoca,,-40.45088096,-3.539006662,Meruoca,,Meruoca,Noroeste Cearense,2308203
CE,Milagres,,-38.94315677,-7.310427797,Milagres,,Brejo Santo,Sul Cearense,2308302
CE,Milh,,-39.20357418,-5.679564101,Milha,,Serto de Senador Pompeu,Sertes Cearenses,2308351
CE,Mirama,,-39.97006488,-3.568599907,Miraima,,Sobral,Noroeste Cearense,2308377
CE,Misso Velha,,-39.14519771,-7.243231514,Missao Velha,,Cariri,Sul Cearense,2308401
CE,Mombaa,,-39.62440525,-5.74700454,Mombaca,,Serto de Senador Pompeu,Sertes Cearenses,2308500
CE,Monsenhor Tabosa,,-40.07006746,-4.783091292,Monsenhor Tabosa,,Serto de Cratus,Sertes Cearenses,2308609
CE,Morada Nova,,-38.36490735,-5.096952,Morada Nova,,Baixo Jaguaribe,Jaguaribe,2308708
CE,Morajo,,-40.68359893,-3.466363274,Moraujo,,Corea,Noroeste Cearense,2308807
CE,Morrinhos,,-40.12417889,-3.228830534,Morrinhos,,Litoral de Camocim e Acara,Noroeste Cearense,2308906
CE,Mucambo,,-40.74528047,-3.90602998,Mucambo,,Sobral,Noroeste Cearense,2309003
CE,Mulungu,,-38.99306592,-4.29952832,Mulungu,,Baturit,Norte Cearense,2309102
CE,Nova Olinda,,-39.67948547,-7.084102811,Nova Olinda,,Cariri,Sul Cearense,2309201
CE,Nova Russas,,-40.56530335,-4.70680835,Nova Russas,,Serto de Cratus,Sertes Cearenses,2309300
CE,Novo Oriente,,-40.77476727,-5.533864836,Novo Oriente,,Serto de Cratus,Sertes Cearenses,2309409
CE,Ocara,,-38.59853798,-4.485066545,Ocara,,Chorozinho,Norte Cearense,2309458
CE,Ors,,-38.91359598,-6.242798784,Oros,,Iguatu,Centro-Sul Cearense,2309508
CE,Pacajus,,-38.46702226,-4.17054051,Pacajus,,Pacajus,Metropolitana de Fortaleza,2309607
CE,Pacatuba,,-38.61829931,-3.986120022,Pacatuba,,Fortaleza,Metropolitana de Fortaleza,2309706
CE,Pacoti,,-38.92588894,-4.224765433,Pacoti,,Baturit,Norte Cearense,2309805
CE,Pacuj,,-40.69673611,-3.978394386,Pacuja,,Sobral,Noroeste Cearense,2309904
CE,Palhano,,-37.96623516,-4.743945077,Palhano,,Baixo Jaguaribe,Jaguaribe,2310001
CE,Palmcia,,-38.84502907,-4.148981775,Palmacia,,Baturit,Norte Cearense,2310100
CE,Paracuru,,-39.02954534,-3.411635009,Paracuru,,Baixo Curu,Norte Cearense,2310209
CE,Paraipaba,,-39.14811553,-3.436196728,Paraipaba,,Baixo Curu,Norte Cearense,2310258
CE,Parambu,,-40.69420724,-6.210336002,Parambu,,Serto de Inhamuns,Sertes Cearenses,2310308
CE,Paramoti,,-39.2394665,-4.097432332,Paramoti,,Canind,Norte Cearense,2310407
CE,Pedra Branca,,-39.71393764,-5.4546855,Pedra Branca,,Serto de Senador Pompeu,Sertes Cearenses,2310506
CE,Penaforte,,-39.07412752,-7.829914612,Penaforte,,Brejo Santo,Sul Cearense,2310605
CE,Pentecoste,,-39.26700873,-3.796266736,Pentecoste,,Mdio Curu,Norte Cearense,2310704
CE,Pereiro,,-38.45913604,-6.045076902,Pereiro,,Serra do Pereiro,Jaguaribe,2310803
CE,Pindoretama,,-38.30008798,-4.027803993,Pindoretama,,Cascavel,Norte Cearense,2310852
CE,Piquet Carneiro,,-39.41940626,-5.80856956,Piquet Carneiro,,Serto de Senador Pompeu,Sertes Cearenses,2310902
CE,Pires Ferreira,,-40.64654125,-4.242154143,Pires Ferreira,,Ipu,Noroeste Cearense,2310951
CE,Poranga,,-40.92637951,-4.743950732,Poranga,,Ipu,Noroeste Cearense,2311009
CE,Porteiras,,-39.11533146,-7.535746442,Porteiras,,Cariri,Sul Cearense,2311108
CE,Potengi,,-40.03213254,-7.09017947,Potengi,,Chapada do Araripe,Sul Cearense,2311207
CE,Potiretama,,-38.15791785,-5.721667904,Potiretama,,Serra do Pereiro,Jaguaribe,2311231
